[{"cc_venueID":1, "venueID":2, "lat":0.0, "lon":0.0, "zip":"", "city":"", "venueName":"Private Residence", "state":"", "country":"", "address_1":"", "address_2":"", "venueType":"Other", "venueStatus":"Inactive"},
 {"cc_venueID":2, "venueID":3, "lat":48.7312598, "lon":-122.5052677, "zip":"98225", "city":"Bellingham", "venueName":"Woods Coffee - Boulevard Coffee", "state":"WA", "country":"US", "address_1":"470 Bayview Dr", "address_2":"", "venueType":"Standard", "venueStatus":"Active"},
 {"cc_venueID":3, "venueID":4, "lat":48.4292469, "lon":-123.354569, "zip":"BC V8T 1C7", "city":"Victoria", "venueName":"Fernwood Coffee", "state":"BC", "country":"CA", "address_1":"1115 N Park St", "address_2":"", "venueType":"Standard", "venueStatus":"Active"},
 {"cc_venueID":4, "venueID":5, "lat":47.6070799, "lon":-122.3355676, "zip":"98101", "city":"Seattle", "venueName":"VoVito Espresso - Downtown", "state":"WA", "country":"US", "address_1":"1100 4th Ave", "address_2":"", "venueType":"Standard", "venueStatus":"Active"},
 {"cc_venueID":5, "venueID":6, "lat":47.5631036, "lon":-122.3895224, "zip":"98116", "city":"Seattle", "venueName":"Fiddlehead Fine Foods & Cafe", "state":"WA", "country":"US", "address_1":"4310 SW Oregon St", "address_2":"", "venueType":"Standard", "venueStatus":"Inactive"},
 {"cc_venueID":6, "venueID":143233, "lat":47.614086151123, "lon":-122.31938171387, "zip":"98122", "city":"Seattle", "venueName":"Caffe Vita - Capitol Hill", "state":"WA", "country":"US", "address_1":"1005 E. Pike", "address_2":"", "venueType":"Standard", "venueStatus":"Active"},
 {"cc_venueID":7, "venueID":147835, "lat":47.682189941406, "lon":-122.35507965088, "zip":"98103", "city":"Seattle", "venueName":"Herkimer Coffee - Greenwood", "state":"WA", "country":"US", "address_1":"7320 Greenwood AVE N", "address_2":"Seattle, WA", "venueType":"Standard", "venueStatus":"Active"},
 {"cc_venueID":8, "venueID":148555, "lat":47.634128570557, "lon":-122.28093719482, "zip":"98112", "city":"Seattle", "venueName":"Starbucks - Madison Park", "state":"WA", "country":"US", "address_1":"4000 East Madison", "address_2":"", "venueType":"Standard", "venueStatus":"Active"},
 {"cc_venueID":9, "venueID":152569, "lat":47.659999847412, "lon":-122.29000091553, "zip":"98105", "city":"Seattle", "venueName":"Zoka Coffee - University", "state":"WA", "country":"US", "address_1":"2901 NE Blakeley St", "address_2":"", "venueType":"Standard", "venueStatus":"Active"},
 {"cc_venueID":10, "venueID":160625, "lat":47.668674468994, "lon":-122.38290405273, "zip":"98107", "city":"Seattle", "venueName":"Cupcake Royale - Ballard", "state":"WA", "country":"US", "address_1":"2052 NW Market St", "address_2":"", "venueType":"Standard", "venueStatus":"Active"},
 {"cc_venueID":11, "venueID":169108, "lat":47.634880065918, "lon":-122.35697937012, "zip":"98109", "city":"Seattle", "venueName":"El Diablo Coffee Co", "state":"WA", "country":"US", "address_1":"1825 Queen Anne Ave N", "address_2":"", "venueType":"Standard", "venueStatus":"Inactive"},
 {"cc_venueID":12, "venueID":181364, "lat":47.659999847412, "lon":-122.29000091553, "zip":"98105", "city":"Seattle", "venueName":"Metro Cinemas", "state":"WA", "country":"US", "address_1":"4500 9th AVE NE", "address_2":"", "venueType":"Other", "venueStatus":"Inactive"},
 {"cc_venueID":13, "venueID":182854, "lat":47.615684509277, "lon":-122.33452606201, "zip":"98101", "city":"Seattle", "venueName":"Motore Coffee", "state":"WA", "country":"US", "address_1":"1904 9th Ave", "address_2":"", "venueType":"Standard", "venueStatus":"Inactive"},
 {"cc_venueID":14, "venueID":25440012, "lat":47.680599, "lon":-122.325836, "zip":"", "city":"Seattle", "venueName":"Revolutions Espresso", "state":"WA", "country":"US", "address_1":"7208 East Green Lake Drive North", "address_2":"", "venueType":"Standard", "venueStatus":"Active"},
 {"cc_venueID":15, "venueID":204783, "lat":47.639530181885, "lon":-122.30206298828, "zip":"98112", "city":"Seattle", "venueName":"Fuel Coffee - Montlake", "state":"WA", "country":"US", "address_1":"2300 24th Ave E", "address_2":"", "venueType":"Standard", "venueStatus":"Active"},
 {"cc_venueID":16, "venueID":211566, "lat":47.62366104126, "lon":-122.3126449585, "zip":"98102", "city":"Seattle", "venueName":"Liberty Bar", "state":"WA", "country":"US", "address_1":"517 15th Ave E", "address_2":"", "venueType":"Standard", "venueStatus":"Active"},
 {"cc_venueID":17, "venueID":217576, "lat":47.692310333252, "lon":-122.3179397583, "zip":"98115", "city":"Seattle", "venueName":"Cloud City Coffee", "state":"WA", "country":"US", "address_1":"8801 Roosevelt Way NE", "address_2":"", "venueType":"Standard", "venueStatus":"Active"},
 {"cc_venueID":18, "venueID":248298, "lat":47.6159324646, "lon":-122.35080718994, "zip":"98121", "city":"Seattle", "venueName":"Cherry Street Coffee House - Belltown", "state":"WA", "country":"US", "address_1":"2719 1st Ave", "address_2":"", "venueType":"Standard", "venueStatus":"Active"},
 {"cc_venueID":19, "venueID":277010, "lat":47.601539611816, "lon":-122.32987976074, "zip":"98104", "city":"Seattle", "venueName":"All City Coffee - Pioneer Square", "state":"WA", "country":"US", "address_1":"125 Prefontaine Pl S", "address_2":"", "venueType":"Standard", "venueStatus":"Inactive"},
 {"cc_venueID":20, "venueID":282692, "lat":47.615314483643, "lon":-122.32341003418, "zip":"98122", "city":"Seattle", "venueName":"Stumptown Coffee - Pine", "state":"WA", "country":"US", "address_1":"616 E Pine St", "address_2":"", "venueType":"Standard", "venueStatus":"Inactive"},
 {"cc_venueID":21, "venueID":284194, "lat":47.540000915527, "lon":-122.38999938965, "zip":"98136", "city":"Seattle", "venueName":"C & P Coffee ", "state":"WA", "country":"US", "address_1":"5612 California Ave Sw", "address_2":"", "venueType":"Standard", "venueStatus":"Active"},
 {"cc_venueID":22, "venueID":287999, "lat":47.608894348145, "lon":-122.33999633789, "zip":"98101", "city":"Seattle", "venueName":"Seattle Coffee Works", "state":"WA", "country":"US", "address_1":"107 Pike St", "address_2":"", "venueType":"Standard", "venueStatus":"Active"},
 {"cc_venueID":23, "venueID":295126, "lat":47.617179870605, "lon":-122.337059021, "zip":"98121", "city":"Seattle", "venueName":"Koots Green Tea", "state":"WA", "country":"US", "address_1":"900 Lenora St", "address_2":"#124", "venueType":"Standard", "venueStatus":"Inactive"},
 {"cc_venueID":24, "venueID":305322, "lat":47.689777374268, "lon":-122.3229675293, "zip":"98115", "city":"Seattle", "venueName":"Cafe Javasti - Mapleleaf", "state":"WA", "country":"US", "address_1":"8410 5th Ave NE", "address_2":"", "venueType":"Standard", "venueStatus":"Active"},
 {"cc_venueID":25, "venueID":314599, "lat":47.60631942749, "lon":-122.33766174316, "zip":"98101", "city":"Seattle", "venueName":"Ancient Grounds", "state":"WA", "country":"US", "address_1":"1220 1st Ave", "address_2":"", "venueType":"Standard", "venueStatus":"Active"},
 {"cc_venueID":26, "venueID":314710, "lat":47.69059753418, "lon":-122.35646820068, "zip":"98103", "city":"Seattle", "venueName":"Gorditos Healthy Mexican Food", "state":"WA", "country":"US", "address_1":"213 N 85th St", "address_2":"", "venueType":"Other", "venueStatus":"Active"},
 {"cc_venueID":27, "venueID":321876, "lat":47.540622711182, "lon":-122.38729858398, "zip":"98136", "city":"Seattle", "venueName":"Caffe Ladro - West Seattle", "state":"WA", "country":"US", "address_1":"7011 California Ave SW", "address_2":"", "venueType":"Standard", "venueStatus":"Active"},
 {"cc_venueID":28, "venueID":323231, "lat":47.66138458252, "lon":-122.33599853516, "zip":"98103", "city":"Seattle", "venueName":"Trophy Cupcakes", "state":"WA", "country":"US", "address_1":"1815 N 45th St", "address_2":"", "venueType":"Standard", "venueStatus":"Active"},
 {"cc_venueID":29, "venueID":381587, "lat":47.602325439453, "lon":-122.33253479004, "zip":"98104", "city":"Seattle", "venueName":"Trabant Coffee - Pioneer Square", "state":"WA", "country":"US", "address_1":"602 2nd Ave", "address_2":"", "venueType":"Standard", "venueStatus":"Inactive"},
 {"cc_venueID":30, "venueID":381607, "lat":47.668670654297, "lon":-122.37965393066, "zip":"98107", "city":"Seattle", "venueName":"Sip & Ship - Ballard ", "state":"WA", "country":"US", "address_1":"1752 NW Market St", "address_2":"", "venueType":"Standard", "venueStatus":"Active"},
 {"cc_venueID":31, "venueID":388331, "lat":47.652000427246, "lon":-122.35339355469, "zip":"98103", "city":"Seattle", "venueName":"Caffe Ladro - Fremont", "state":"WA", "country":"US", "address_1":"452 N 36th St", "address_2":"", "venueType":"Standard", "venueStatus":"Active"},
 {"cc_venueID":32, "venueID":392854, "lat":47.61164855957, "lon":-122.31679534912, "zip":"98122", "city":"Seattle", "venueName":"Stumptown Coffee - 12th", "state":"WA", "country":"US", "address_1":"1115 12th Ave", "address_2":"", "venueType":"Standard", "venueStatus":"Inactive"},
 {"cc_venueID":33, "venueID":395155, "lat":47.632446289062, "lon":-122.31025695801, "zip":"98112", "city":"Seattle", "venueName":"Volunteer Park Cafe", "state":"WA", "country":"US", "address_1":"1501 17th Ave E", "address_2":"", "venueType":"Standard", "venueStatus":"Active"},
 {"cc_venueID":34, "venueID":420447, "lat":47.686191558838, "lon":-122.35653686523, "zip":"98103", "city":"Seattle", "venueName":"Seven Coffee Roasters - Greenwood", "state":"WA", "country":"US", "address_1":"153 N 78th St", "address_2":"", "venueType":"Standard", "venueStatus":"Inactive"},
 {"cc_venueID":35, "venueID":433731, "lat":47.614322, "lon":-122.327286, "zip":"98102", "city":"Seattle", "venueName":"Victrola Coffee - Pike", "state":"WA", "country":"US", "address_1":"310 E Pike ST ", "address_2":"", "venueType":"Standard", "venueStatus":"Active"},
 {"cc_venueID":36, "venueID":531970, "lat":47.636058807373, "lon":-122.37036895752, "zip":"98119", "city":"Seattle", "venueName":"Muse Coffee Co", "state":"WA", "country":"US", "address_1":"1907 10th AVE W", "address_2":"", "venueType":"Standard", "venueStatus":"Inactive"},
 {"cc_venueID":37, "venueID":555644, "lat":47.530185699463, "lon":-121.87284851074, "zip":"98065", "city":"Snoqualmie", "venueName":"Zoka Coffee - Snoqualmie", "state":"WA", "country":"US", "address_1":"7811 SE Center BLVD", "address_2":"", "venueType":"Standard", "venueStatus":"Inactive"},
 {"cc_venueID":38, "venueID":677984, "lat":47.760429382324, "lon":-122.20136260986, "zip":"98011", "city":"Bothell", "venueName":"Lyon's Den Coffee Shop", "state":"WA", "country":"US", "address_1":"10415 Beardslee Blvd", "address_2":"", "venueType":"Standard", "venueStatus":"Active"},
 {"cc_venueID":39, "venueID":678221, "lat":47.674381256104, "lon":-122.12950897217, "zip":"98052", "city":"Redmond", "venueName":"SoulFood Books", "state":"WA", "country":"US", "address_1":"15748 Redmond Way", "address_2":"", "venueType":"Standard", "venueStatus":"Active"},
 {"cc_venueID":40, "venueID":678271, "lat":47.599128723145, "lon":-122.33235168457, "zip":"98101", "city":"Seattle", "venueName":"Zeitgeist Coffee", "state":"WA", "country":"US", "address_1":"171 S Jackson St", "address_2":"", "venueType":"Standard", "venueStatus":"Active"},
 {"cc_venueID":41, "venueID":678274, "lat":47.599864959717, "lon":-122.33289337158, "zip":"98104", "city":"Seattle", "venueName":"Caffe Umbria - Pioneer Square", "state":"WA", "country":"US", "address_1":"320 Occidental Ave S", "address_2":"", "venueType":"Standard", "venueStatus":"Active"},
 {"cc_venueID":42, "venueID":678288, "lat":47.650466918945, "lon":-122.35452270508, "zip":"98103", "city":"Seattle", "venueName":"Theo Chocolate Factory", "state":"WA", "country":"US", "address_1":"3400 Phinney Ave N", "address_2":"", "venueType":"Other", "venueStatus":"Active"},
 {"cc_venueID":43, "venueID":678290, "lat":47.657108306885, "lon":-122.31321716309, "zip":"98105", "city":"Seattle", "venueName":"Cafe Solstice - University", "state":"WA", "country":"US", "address_1":"4116 University Way NE", "address_2":"", "venueType":"Standard", "venueStatus":"Active"},
 {"cc_venueID":44, "venueID":678318, "lat":47.651908874512, "lon":-122.35301208496, "zip":"98103", "city":"Seattle", "venueName":"Fremont Coffee Co.", "state":"WA", "country":"US", "address_1":"459 N 36th St", "address_2":"", "venueType":"Standard", "venueStatus":"Active"},
 {"cc_venueID":45, "venueID":678324, "lat":47.675956726074, "lon":-122.32086181641, "zip":"98115", "city":"Seattle", "venueName":"Green Lake Park & Ride", "state":"WA", "country":"US", "address_1":"6601 8th Avenue NE", "address_2":"(N side of 65th St) 47.676037N 122.320871 W", "venueType":"Other", "venueStatus":"Active"},
 {"cc_venueID":46, "venueID":678412, "lat":47.616718292236, "lon":-122.34618377686, "zip":"98121", "city":"Seattle", "venueName":"Uptown Espresso - Belltown", "state":"WA", "country":"US", "address_1":"2504 4th Ave.", "address_2":"(4th and Wall)", "venueType":"Standard", "venueStatus":"Active"},
 {"cc_venueID":47, "venueID":678441, "lat":47.661239624023, "lon":-122.30953979492, "zip":"98105", "city":"Seattle", "venueName":"Burke Museum", "state":"WA", "country":"US", "address_1":"17th Ave NE & NE 45th", "address_2":"", "venueType":"Other", "venueStatus":"Inactive"},
 {"cc_venueID":48, "venueID":678486, "lat":47.66130065918, "lon":-122.31410217285, "zip":"98105", "city":"Seattle", "venueName":"Trabant Coffee - University", "state":"WA", "country":"US", "address_1":"1309 NE 45th St", "address_2":"", "venueType":"Standard", "venueStatus":"Inactive"},
 {"cc_venueID":49, "venueID":678519, "lat":47.629634857178, "lon":-122.35942840576, "zip":"98119", "city":"Seattle", "venueName":"Kerry Park", "state":"WA", "country":"US", "address_1":"211 W Highland Dr", "address_2":"", "venueType":"Other", "venueStatus":"Active"},
 {"cc_venueID":50, "venueID":678547, "lat":47.615238189697, "lon":-122.32790374756, "zip":"98122", "city":"Seattle", "venueName":"Bauhaus Books & Coffee - Capitol Hill 1", "state":"WA", "country":"US", "address_1":"301 E Pine St", "address_2":"", "venueType":"Standard", "venueStatus":"Inactive"},
 {"cc_venueID":51, "venueID":678582, "lat":47.638149261475, "lon":-122.35653686523, "zip":"98109", "city":"Seattle", "venueName":"Teacup", "state":"WA", "country":"US", "address_1":"2128 Queen Anne Ave N", "address_2":"", "venueType":"Standard", "venueStatus":"Inactive"},
 {"cc_venueID":52, "venueID":683603, "lat":47.649230957031, "lon":-122.37686920166, "zip":"98119", "city":"Seattle", "venueName":"Q CAFE", "state":"WA", "country":"US", "address_1":"3223 15th Avenue West", "address_2":"", "venueType":"Standard", "venueStatus":"Inactive"},
 {"cc_venueID":53, "venueID":689424, "lat":47.638935089111, "lon":-122.32587432861, "zip":"98102", "city":"Seattle", "venueName":"Voxx Coffee - Eastlake", "state":"WA", "country":"US", "address_1":"2245 Eastlake Ave E", "address_2":"", "venueType":"Standard", "venueStatus":"Active"},
 {"cc_venueID":54, "venueID":691910, "lat":47.67724609375, "lon":-122.35398101807, "zip":"98103", "city":"Seattle", "venueName":"Phinney Neighborhood Center", "state":"WA", "country":"US", "address_1":"6532 Phinney Avenue North", "address_2":"", "venueType":"Other", "venueStatus":"Active"},
 {"cc_venueID":55, "venueID":695289, "lat":47.666069030762, "lon":-122.10026550293, "zip":"98052", "city":"Redmond", "venueName":"Peets Coffee - Redmond", "state":"WA", "country":"US", "address_1":"17887 Redmond Way ", "address_2":"Suite 130", "venueType":"Standard", "venueStatus":"Active"},
 {"cc_venueID":56, "venueID":695514, "lat":47.675579071045, "lon":-122.31751251221, "zip":"98115", "city":"Seattle", "venueName":"Wayward Coffeehouse", "state":"WA", "country":"US", "address_1":"6417 Roosevelt Way NE #104", "address_2":"SW corner Roosevelt & 65th", "venueType":"Standard", "venueStatus":"Active"},
 {"cc_venueID":57, "venueID":702181, "lat":47.689960479736, "lon":-122.35530853271, "zip":"98103", "city":"Seattle", "venueName":"Neptune Coffee", "state":"WA", "country":"US", "address_1":"8415 Greenwood Ave N", "address_2":"", "venueType":"Standard", "venueStatus":"Inactive"},
 {"cc_venueID":58, "venueID":703735, "lat":47.620166778564, "lon":-122.3304977417, "zip":"98109", "city":"Seattle", "venueName":"Espresso Vivace - Alley 24", "state":"WA", "country":"US", "address_1":"227 Yale Ave N", "address_2":"", "venueType":"Standard", "venueStatus":"Active"},
 {"cc_venueID":59, "venueID":711753, "lat":47.668785095215, "lon":-122.38454437256, "zip":"98107", "city":"Seattle", "venueName":"Ballard Coffee Works", "state":"WA", "country":"US", "address_1":"2060 NW Market Street", "address_2":"", "venueType":"Standard", "venueStatus":"Active"},
 {"cc_venueID":60, "venueID":713014, "lat":47.675956726074, "lon":-122.36500549316, "zip":"98117", "city":"Seattle", "venueName":"The Dray", "state":"WA", "country":"US", "address_1":"708 NW 65th St", "address_2":"", "venueType":"Standard", "venueStatus":"Active"},
 {"cc_venueID":61, "venueID":718106, "lat":47.66130065918, "lon":-122.33699035645, "zip":"98103", "city":"Seattle ", "venueName":"Fuel Coffee - Wallingford", "state":"WA", "country":"US", "address_1":"1705 N 45th St", "address_2":"", "venueType":"Standard", "venueStatus":"Active"},
 {"cc_venueID":62, "venueID":725774, "lat":47.622100830078, "lon":-122.34710693359, "zip":"98109", "city":"Seattle", "venueName":"Bainbridge Island Coffee Roasters", "state":"WA", "country":"US", "address_1":"516 Harrison St", "address_2":"", "venueType":"Standard", "venueStatus":"Inactive"},
 {"cc_venueID":63, "venueID":731139, "lat":47.562381744385, "lon":-122.38676452637, "zip":"98116", "city":"Seattle", "venueName":"Cupcake Royale - West Seattle", "state":"WA", "country":"US", "address_1":"4556 California Ave SW", "address_2":"", "venueType":"Standard", "venueStatus":"Active"},
 {"cc_venueID":64, "venueID":739002, "lat":47.580795288086, "lon":-122.40622711182, "zip":"98116", "city":"Seattle", "venueName":"Pioneer Coffee", "state":"WA", "country":"US", "address_1":"2536 Alki Ave SW", "address_2":"", "venueType":"Standard", "venueStatus":"Inactive"},
 {"cc_venueID":65, "venueID":744234, "lat":47.632343292236, "lon":-122.36183929443, "zip":"98119", "city":"Seattle", "venueName":"Top Pot Doughnuts - Queen Anne", "state":"WA", "country":"US", "address_1":"325 W Galer St", "address_2":"", "venueType":"Standard", "venueStatus":"Active"},
 {"cc_venueID":66, "venueID":751090, "lat":47.604862213135, "lon":-122.33626556396, "zip":"98104", "city":"Seattle", "venueName":"Boka Kitchen & Bar", "state":"WA", "country":"US", "address_1":"1010 1st Ave", "address_2":"", "venueType":"Other", "venueStatus":"Inactive"},
 {"cc_venueID":67, "venueID":762628, "lat":47.685474395752, "lon":-122.35585021973, "zip":"98103", "city":"Seattle", "venueName":"Makeda Coffee", "state":"WA", "country":"US", "address_1":"153 N 78th St", "address_2":"", "venueType":"Standard", "venueStatus":"Active"},
 {"cc_venueID":68, "venueID":774658, "lat":47.67259979248, "lon":-122.35438537598, "zip":"98103", "city":"Seattle", "venueName":"Fresh Flours - Phinney", "state":"WA", "country":"US", "address_1":"6015 Phinney Ave N", "address_2":"", "venueType":"Standard", "venueStatus":"Active"},
 {"cc_venueID":69, "venueID":777722, "lat":47.656734466553, "lon":-122.34236907959, "zip":"98103", "city":"Seattle", "venueName":"Kuma Coffee - Stone Way", "state":"WA", "country":"US", "address_1":"4108 Stone Way N", "address_2":"", "venueType":"Standard", "venueStatus":"Inactive"},
 {"cc_venueID":70, "venueID":780876, "lat":47.613422393799, "lon":-122.30883789062, "zip":"98122", "city":"Seattle", "venueName":"Tougo Coffee - Central District", "state":"WA", "country":"US", "address_1":"1410 18th Ave ", "address_2":"", "venueType":"Standard", "venueStatus":"Inactive"},
 {"cc_venueID":71, "venueID":781323, "lat":47.675445556641, "lon":-122.20656585693, "zip":"98033", "city":"Kirkland", "venueName":"Kahili Coffee", "state":"WA", "country":"US", "address_1":"105 Lake St S", "address_2":"", "venueType":"Standard", "venueStatus":"Inactive"},
 {"cc_venueID":72, "venueID":1544343, "lat":47.658519744873, "lon":-122.31262969971, "zip":"98105", "city":"Seattle", "venueName":"Cafe Allegro", "state":"WA", "country":"US", "address_1":"4214 University Way NE", "address_2":"Alley entrance", "venueType":"Standard", "venueStatus":"Active"},
 {"cc_venueID":73, "venueID":784775, "lat":47.651039123535, "lon":-122.35076904297, "zip":"98103", "city":"Seattle", "venueName":"Stickman Coffee", "state":"WA", "country":"US", "address_1":"3516 Fremont Pl N", "address_2":"", "venueType":"Standard", "venueStatus":"Inactive"},
 {"cc_venueID":74, "venueID":801212, "lat":47.695182800293, "lon":-122.31757354736, "zip":"98115", "city":"Seattle", "venueName":"Blue Saucer", "state":"WA", "country":"US", "address_1":"9127 Roosevelt Way NE", "address_2":"", "venueType":"Standard", "venueStatus":"Active"},
 {"cc_venueID":75, "venueID":803131, "lat":47.668670654297, "lon":-122.39047241211, "zip":"98107", "city":"Seattle", "venueName":"Firehouse Coffee", "state":"WA", "country":"US", "address_1":"2622 NW Market St", "address_2":"", "venueType":"Standard", "venueStatus":"Active"},
 {"cc_venueID":76, "venueID":807152, "lat":47.701421, "lon":-122.344643, "zip":"98133", "city":"Seattle", "venueName":"Starbucks - OakTree", "state":"WA", "country":"US", "address_1":"10002 Aurora Ave N", "address_2":"", "venueType":"Standard", "venueStatus":"Inactive"},
 {"cc_venueID":77, "venueID":808842, "lat":47.622501373291, "lon":-122.29763793945, "zip":"98112", "city":"Seattle", "venueName":"Essential Bakery Cafe", "state":"WA", "country":"US", "address_1":"2719 E Madison St", "address_2":"", "venueType":"Standard", "venueStatus":"Active"},
 {"cc_venueID":78, "venueID":810877, "lat":47.624578, "lon":-122.32533, "zip":"98102", "city":"Seattle", "venueName":"Top Pot Doughnuts - Capitol Hill", "state":"WA", "country":"US", "address_1":"609 Summit Ave E", "address_2":"(between Mercer St & Roy St)", "venueType":"Standard", "venueStatus":"Active"},
 {"cc_venueID":79, "venueID":813206, "lat":47.669567108154, "lon":-122.38761138916, "zip":"98107", "city":"Seattle", "venueName":"Aster Coffee Lounge", "state":"WA", "country":"US", "address_1":"5615 24th Ave NW", "address_2":"(between 56th St & 57th St)", "venueType":"Standard", "venueStatus":"Inactive"},
 {"cc_venueID":80, "venueID":16065742, "lat":47.622676849365, "lon":-122.31266784668, "zip":"98112", "city":"Seattle", "venueName":"Victrola Coffee - 15th ", "state":"WA", "country":"US", "address_1":"411 15th Avenue East", "address_2":"", "venueType":"Standard", "venueStatus":"Active"},
 {"cc_venueID":81, "venueID":813424, "lat":47.609912872314, "lon":-122.34086608887, "zip":"98101", "city":"Seattle", "venueName":"The Chocolate Box", "state":"WA", "country":"US", "address_1":"106 Pine St", "address_2":"", "venueType":"Standard", "venueStatus":"Active"},
 {"cc_venueID":82, "venueID":3272022, "lat":47.555965423584, "lon":-122.27005004883, "zip":"98118", "city":"Seattle", "venueName":"Caffe Vita - Seward Park", "state":"WA", "country":"US", "address_1":"5028 Wilson Avenue South", "address_2":"", "venueType":"Standard", "venueStatus":"Active"},
 {"cc_venueID":83, "venueID":880534, "lat":47.621192932129, "lon":-122.33434295654, "zip":"98109", "city":"Seattle", "venueName":"Moka's Cafe", "state":"WA", "country":"US", "address_1":"329 Fairview Ave N", "address_2":"", "venueType":"Standard", "venueStatus":"Inactive"},
 {"cc_venueID":84, "venueID":886529, "lat":47.619739532471, "lon":-122.32402038574, "zip":"98102", "city":"Seattle", "venueName":"B & O Espresso - Capitol Hill", "state":"WA", "country":"US", "address_1":"204 Belmont Ave E", "address_2":"", "venueType":"Standard", "venueStatus":"Inactive"},
 {"cc_venueID":85, "venueID":895440, "lat":47.757022857666, "lon":-122.3134765625, "zip":"98155", "city":"Seattle", "venueName":"Laughing Ladies Cafe", "state":"WA", "country":"US", "address_1":"17551 - 15th Ave. NE", "address_2":"", "venueType":"Standard", "venueStatus":"Inactive"},
 {"cc_venueID":86, "venueID":904039, "lat":47.617164611816, "lon":-122.35291290283, "zip":"98121", "city":"Seattle", "venueName":"Holy Grounds Coffee - Belltown", "state":"WA", "country":"US", "address_1":"2929 1st Ave ", "address_2":"", "venueType":"Standard", "venueStatus":"Inactive"},
 {"cc_venueID":87, "venueID":905330, "lat":47.624530792236, "lon":-122.30730438232, "zip":"98112", "city":"Seattle", "venueName":"Fuel Coffee - Capitol Hill", "state":"WA", "country":"US", "address_1":"610 19th Ave E", "address_2":"", "venueType":"Standard", "venueStatus":"Active"},
 {"cc_venueID":88, "venueID":908433, "lat":47.641586303711, "lon":-122.33575439453, "zip":"98101", "city":"Seattle", "venueName":"South Lake Union Park", "state":"WA", "country":"US", "address_1":"South Lake Union", "address_2":"Near Armory & Center for Wooden Boats", "venueType":"Other", "venueStatus":"Active"},
 {"cc_venueID":89, "venueID":915104, "lat":47.681934356689, "lon":-122.34454345703, "zip":"98103", "city":"Seattle", "venueName":"Beth's Cafe", "state":"WA", "country":"US", "address_1":"7311 Aurora Avenue North", "address_2":"", "venueType":"Standard", "venueStatus":"Active"},
 {"cc_venueID":90, "venueID":928290, "lat":47.551807403564, "lon":-122.32691192627, "zip":"98108", "city":"Seattle", "venueName":"Seattle Design Center", "state":"WA", "country":"US", "address_1":"5701 Sixth Ave South", "address_2":"", "venueType":"Other", "venueStatus":"Active"},
 {"cc_venueID":91, "venueID":934085, "lat":47.538593292236, "lon":-122.16835784912, "zip":"98056", "city":"Newcastle", "venueName":"Sweet Decadence", "state":"WA", "country":"US", "address_1":"12835 Newcastle Way, Suite 100", "address_2":"", "venueType":"Standard", "venueStatus":"Active"},
 {"cc_venueID":92, "venueID":934502, "lat":47.216159820557, "lon":-122.23486328125, "zip":"98390", "city":"Sumner", "venueName":"Dillano's Coffee Roasters", "state":"WA", "country":"US", "address_1":"1607 45th Street East ", "address_2":"", "venueType":"Other", "venueStatus":"Active"},
 {"cc_venueID":93, "venueID":946480, "lat":47.47970199585, "lon":-122.20508575439, "zip":"98057", "city":"Renton", "venueName":"Liberty Cafe", "state":"WA", "country":"US", "address_1":"926 S 3rd Street", "address_2":"", "venueType":"Standard", "venueStatus":"Active"},
 {"cc_venueID":94, "venueID":954452, "lat":47.632419586182, "lon":-122.13709259033, "zip":"98052", "city":"Redmond", "venueName":"Kitanda Brazilian Espresso & Bakery", "state":"WA", "country":"US", "address_1":"15230 NE 24th St", "address_2":"", "venueType":"Standard", "venueStatus":"Inactive"},
 {"cc_venueID":95, "venueID":957886, "lat":47.616802215576, "lon":-122.33815765381, "zip":"98121", "city":"Seattle", "venueName":"Tougo Coffee - SLU", "state":"WA", "country":"US", "address_1":"2113 Westlake Ave", "address_2":"", "venueType":"Standard", "venueStatus":"Inactive"},
 {"cc_venueID":96, "venueID":978230, "lat":47.606876373291, "lon":-122.31679534912, "zip":"98122", "city":"Seattle", "venueName":"Watertown Coffee", "state":"WA", "country":"US", "address_1":"550 12th Ave ", "address_2":"", "venueType":"Standard", "venueStatus":"Inactive"},
 {"cc_venueID":97, "venueID":978917, "lat":47.545234680176, "lon":-122.01620483398, "zip":"98029", "city":"Issaquah", "venueName":"Caffe Ladro - Issaquah", "state":"WA", "country":"US", "address_1":"1200 10th Ave NE ", "address_2":"", "venueType":"Standard", "venueStatus":"Active"},
 {"cc_venueID":98, "venueID":981625, "lat":47.466869354248, "lon":-122.33950042725, "zip":"98166", "city":"Burien", "venueName":"Burien Press", "state":"WA", "country":"US", "address_1":"423 SW 152nd St", "address_2":"", "venueType":"Standard", "venueStatus":"Active"},
 {"cc_venueID":99, "venueID":982154, "lat":47.635288238525, "lon":-122.37618255615, "zip":"98119", "city":"Seattle", "venueName":"Peets Coffee - Interbay", "state":"WA", "country":"US", "address_1":"1827 15th Ave W", "address_2":"Ste A-2", "venueType":"Standard", "venueStatus":"Inactive"},
 {"cc_venueID":100, "venueID":984105, "lat":47.564533233643, "lon":-122.38677215576, "zip":"98116", "city":"Seattle", "venueName":"Hotwire Coffee", "state":"WA", "country":"US", "address_1":"4410 California Ave SW", "address_2":"", "venueType":"Standard", "venueStatus":"Active"},
 {"cc_venueID":101, "venueID":998769, "lat":47.610385894775, "lon":-122.33990478516, "zip":"98101", "city":"Seattle", "venueName":"Caffe D'Arte", "state":"WA", "country":"US", "address_1":"1625 2nd Ave.", "address_2":"", "venueType":"Standard", "venueStatus":"Inactive"},
 {"cc_venueID":102, "venueID":1029851, "lat":47.676471710205, "lon":-122.20764923096, "zip":"98033", "city":"Kirkland", "venueName":"Zoka Coffee - Kirkland", "state":"WA", "country":"US", "address_1":"129 Central Way", "address_2":"", "venueType":"Standard", "venueStatus":"Active"},
 {"cc_venueID":103, "venueID":1057306, "lat":47.606353759766, "lon":-122.33766937256, "zip":"98101", "city":"Seattle", "venueName":"Stella Coffee", "state":"WA", "country":"US", "address_1":"1224 1st Ave", "address_2":"", "venueType":"Standard", "venueStatus":"Inactive"},
 {"cc_venueID":104, "venueID":1058230, "lat":47.624412536621, "lon":-122.15983581543, "zip":"98009", "city":"Bellevue", "venueName":"Kuma Coffee - Bellevue Roastery", "state":"WA", "country":"US", "address_1":"13600 NE 16th St", "address_2":"", "venueType":"Standard", "venueStatus":"Inactive"},
 {"cc_venueID":105, "venueID":1063701, "lat":47.578315734863, "lon":-122.28814697266, "zip":"98144", "city":"Seattle", "venueName":"Mioposto Cafe", "state":"WA", "country":"US", "address_1":"3601 S McClellan St", "address_2":"", "venueType":"Standard", "venueStatus":"Active"},
 {"cc_venueID":106, "venueID":1066871, "lat":47.62328338623, "lon":-122.35546875, "zip":"98109", "city":"Seattle ", "venueName":"Seattle Center Northwest Rooms", "state":"WA", "country":"US", "address_1":"1st Ave North & Republican St", "address_2":"", "venueType":"Other", "venueStatus":"Active"},
 {"cc_venueID":107, "venueID":1070371, "lat":47.560436, "lon":-122.386828, "zip":"98116", "city":"Seattle", "venueName":"Bakery Nouveau - West Seattle", "state":"WA", "country":"US", "address_1":"4737 California Ave SW", "address_2":"", "venueType":"Standard", "venueStatus":"Active"},
 {"cc_venueID":108, "venueID":1078626, "lat":47.680324554443, "lon":-122.32576751709, "zip":"98115", "city":"Seattle", "venueName":"72nd Street Cafe", "state":"WA", "country":"US", "address_1":"308 NE 72nd St", "address_2":"", "venueType":"Standard", "venueStatus":"Active"},
 {"cc_venueID":109, "venueID":1078643, "lat":47.706886291504, "lon":-122.21161651611, "zip":"98034", "city":"Kirkland", "venueName":"Urban Coffee Lounge - Juanita Village", "state":"WA", "country":"US", "address_1":"9744 NE 119TH WAY", "address_2":"", "venueType":"Standard", "venueStatus":"Active"},
 {"cc_venueID":110, "venueID":1101676, "lat":47.621475219727, "lon":-122.31251525879, "zip":"98112", "city":"Seattle ", "venueName":"15th Avenue Coffee and Tea", "state":"WA", "country":"US", "address_1":"328 15th Avenue E", "address_2":"", "venueType":"Standard", "venueStatus":"Inactive"},
 {"cc_venueID":111, "venueID":1105612, "lat":47.60737991333, "lon":-122.33915710449, "zip":"98101", "city":"Seattle", "venueName":"Fonte Cafe and Wine Bar", "state":"WA", "country":"US", "address_1":"1321 1st Ave", "address_2":"", "venueType":"Standard", "venueStatus":"Active"},
 {"cc_venueID":112, "venueID":1131458, "lat":47.754039764404, "lon":-122.27958679199, "zip":"98155", "city":"Lake Forest Park", "venueName":"Lake Forest Park Town Center/ Third Place Books Commons", "state":"WA", "country":"US", "address_1":"17171 Bothell Way NE ", "address_2":"", "venueType":"Other", "venueStatus":"Active"},
 {"cc_venueID":113, "venueID":1139910, "lat":47.617073059082, "lon":-122.31649017334, "zip":"98122", "city":"Seattle", "venueName":"People's Republic of Koffee", "state":"WA", "country":"US", "address_1":"1718 12th Avenue", "address_2":"", "venueType":"Standard", "venueStatus":"Inactive"},
 {"cc_venueID":114, "venueID":1140768, "lat":47.51428604126, "lon":-122.34516143799, "zip":"98106", "city":"Seattle", "venueName":"Dubsea Coffee", "state":"WA", "country":"US", "address_1":"9910 8th Ave SW", "address_2":"", "venueType":"Standard", "venueStatus":"Active"},
 {"cc_venueID":115, "venueID":1579686, "lat":47.639484405518, "lon":-122.36476898193, "zip":"98119", "city":"Seattle", "venueName":"Bustle Caffe", "state":"WA", "country":"US", "address_1":"535 West Mcraw St", "address_2":"", "venueType":"Standard", "venueStatus":"Inactive"},
 {"cc_venueID":116, "venueID":1178938, "lat":47.622638702393, "lon":-122.33465576172, "zip":"98109", "city":"Seattle", "venueName":"Inner Chapters Bookstore & Cafe", "state":"WA", "country":"US", "address_1":"419 Fairview Ave N", "address_2":"(between Republican & Harrison)", "venueType":"Standard", "venueStatus":"Inactive"},
 {"cc_venueID":117, "venueID":1219013, "lat":47.610549926758, "lon":-122.20286560059, "zip":"98004", "city":"Bellevue", "venueName":"T'Latte", "state":"WA", "country":"US", "address_1":"37 103rd Avenue Northeast", "address_2":"", "venueType":"Standard", "venueStatus":"Active"},
 {"cc_venueID":118, "venueID":1230936, "lat":47.558494567871, "lon":-122.28409576416, "zip":"98118", "city":"Seattle", "venueName":"Empire Espresso - Columbia City", "state":"WA", "country":"US", "address_1":"3829 S Edmunds St", "address_2":"", "venueType":"Standard", "venueStatus":"Active"},
 {"cc_venueID":119, "venueID":1250468, "lat":47.633296966553, "lon":-122.3570022583, "zip":"98109", "city":"Seattle", "venueName":"Chocolopolis", "state":"WA", "country":"US", "address_1":"1527 Queen Anne Ave N", "address_2":"", "venueType":"Standard", "venueStatus":"Active"},
 {"cc_venueID":120, "venueID":1269273, "lat":47.549041748047, "lon":-122.31713104248, "zip":"98108", "city":"Seattle", "venueName":"All City Coffee - Georgetown", "state":"WA", "country":"US", "address_1":"1205 S Vale Stret", "address_2":"", "venueType":"Standard", "venueStatus":"Active"},
 {"cc_venueID":121, "venueID":1272370, "lat":47.578601837158, "lon":-122.33470916748, "zip":"98134", "city":"Seattle", "venueName":"Visions Espresso ", "state":"WA", "country":"US", "address_1":"2737 1st Ave S", "address_2":"", "venueType":"Other", "venueStatus":"Active"},
 {"cc_venueID":122, "venueID":1280708, "lat":47.624557495117, "lon":-122.35443115234, "zip":"98109", "city":"Seattle", "venueName":"Caffe Zingaro", "state":"WA", "country":"US", "address_1":"127 Mercer Street ", "address_2":"(on the corner at Warren Ave N)", "venueType":"Standard", "venueStatus":"Active"},
 {"cc_venueID":123, "venueID":1284149, "lat":47.625465393066, "lon":-122.32084655762, "zip":"98102", "city":"Seattle", "venueName":"Roy Street Coffee & Tea", "state":"WA", "country":"US", "address_1":"700 Broadway East", "address_2":"", "venueType":"Standard", "venueStatus":"Inactive"},
 {"cc_venueID":124, "venueID":1295423, "lat":47.621683, "lon":-122.321295, "zip":"98102", "city":"Seattle", "venueName":"Espresso Vivace - Sidewalk Bar", "state":"WA", "country":"US", "address_1":"321 Broadway E ", "address_2":"", "venueType":"Standard", "venueStatus":"Active"},
 {"cc_venueID":125, "venueID":1303987, "lat":47.665046691895, "lon":-122.30099487305, "zip":"98105", "city":"Seattle", "venueName":"Coffee Drop Cafe ", "state":"WA", "country":"US", "address_1":"5001 25th Ave NE", "address_2":"", "venueType":"Standard", "venueStatus":"Inactive"},
 {"cc_venueID":126, "venueID":1304250, "lat":47.614353179932, "lon":-122.31461334229, "zip":"98122", "city":"Seattle", "venueName":"Old School Custard", "state":"WA", "country":"US", "address_1":"1316 E. Pike St.", "address_2":"", "venueType":"Other", "venueStatus":"Active"},
 {"cc_venueID":127, "venueID":25498799, "lat":47.614491, "lon":-122.314262, "zip":"", "city":"Seattle", "venueName":"Porchlight Coffee & Records", "state":"WA", "country":"US", "address_1":"1517 14th Avenue", "address_2":"", "venueType":"Standard", "venueStatus":"Active"},
 {"cc_venueID":128, "venueID":1334468, "lat":47.616443634033, "lon":-122.1936340332, "zip":"98004", "city":"Bellevue", "venueName":"VoVito Caffe & Gelato ", "state":"WA", "country":"US", "address_1":"700 110th Avenue NE", "address_2":"Suite 195 (street level)", "venueType":"Standard", "venueStatus":"Inactive"},
 {"cc_venueID":129, "venueID":1339608, "lat":47.708793640137, "lon":-122.31734466553, "zip":"98125", "city":"Seattle", "venueName":"La Bera Cafe", "state":"WA", "country":"US", "address_1":"1000 NE Northgate Way", "address_2":"(corner of NE Northgate Way & Roosevelt)", "venueType":"Standard", "venueStatus":"Inactive"},
 {"cc_venueID":130, "venueID":1346141, "lat":47.6897315979, "lon":-122.35546875, "zip":"98103", "city":"Seattle", "venueName":"Chocolati Cafe", "state":"WA", "country":"US", "address_1":"8319 Greenwood Ave N", "address_2":"", "venueType":"Standard", "venueStatus":"Active"},
 {"cc_venueID":131, "venueID":1346762, "lat":47.758728027344, "lon":-122.31339263916, "zip":"98155", "city":"Shoreline", "venueName":"Browns Coffee Company", "state":"WA", "country":"US", "address_1":"1502 NE 179th ", "address_2":"", "venueType":"Standard", "venueStatus":"Inactive"},
 {"cc_venueID":132, "venueID":1352659, "lat":47.612758636475, "lon":-122.30028533936, "zip":"98122", "city":"Seattle", "venueName":"Cortona Cafe", "state":"WA", "country":"US", "address_1":"2425 E Union ", "address_2":"", "venueType":"Standard", "venueStatus":"Inactive"},
 {"cc_venueID":133, "venueID":1360343, "lat":47.669818878174, "lon":-122.31318664551, "zip":"98105", "city":"Seattle", "venueName":"Herkimer Coffee - Ravenna", "state":"WA", "country":"US", "address_1":"5611 University Way NE", "address_2":"", "venueType":"Standard", "venueStatus":"Active"},
 {"cc_venueID":134, "venueID":1369937, "lat":47.611804962158, "lon":-122.28956604004, "zip":"98122", "city":"Seattle", "venueName":"Cupcake Royale - Madrona", "state":"WA", "country":"US", "address_1":"1101 34th Ave", "address_2":"", "venueType":"Standard", "venueStatus":"Active"},
 {"cc_venueID":135, "venueID":1377685, "lat":47.676429748535, "lon":-122.2054901123, "zip":"98033", "city":"Kirkland", "venueName":"Thruline Coffee (was Rococo Coffee) - Kirkland", "state":"WA", "country":"US", "address_1":"136 Park Lane", "address_2":"", "venueType":"Standard", "venueStatus":"Active"},
 {"cc_venueID":136, "venueID":1379266, "lat":47.618724822998, "lon":-122.32591247559, "zip":"98102", "city":"Seattle", "venueName":"Arabica Lounge", "state":"WA", "country":"US", "address_1":"1550 E Olive Way", "address_2":"", "venueType":"Standard", "venueStatus":"Inactive"},
 {"cc_venueID":137, "venueID":1400915, "lat":47.610363006592, "lon":-122.20153808594, "zip":"98004", "city":"Bellevue", "venueName":"Cupcake Royale - Bellevue", "state":"WA", "country":"US", "address_1":"21 Bellevue Way NE", "address_2":"", "venueType":"Standard", "venueStatus":"Inactive"},
 {"cc_venueID":138, "venueID":1415781, "lat":47.540649414062, "lon":-122.04096221924, "zip":"98027", "city":"Issaquah", "venueName":"Issaquah Coffee Company", "state":"WA", "country":"US", "address_1":"317 NW Gilman BLVD", "address_2":"#47", "venueType":"Standard", "venueStatus":"Active"},
 {"cc_venueID":139, "venueID":1419669, "lat":47.803741455078, "lon":-122.32640075684, "zip":"98036", "city":"Lynnwood", "venueName":"Seattle Coffee Gear - Lynnwood", "state":"WA", "country":"US", "address_1":"6911 216th St SW", "address_2":"Suite A", "venueType":"Standard", "venueStatus":"Active"},
 {"cc_venueID":140, "venueID":25414288, "lat":47.57946, "lon":-122.312103, "zip":"", "city":"Seattle", "venueName":"The Station", "state":"WA", "country":"US", "address_1":"1600 S Roberto Maestas Festival St,", "address_2":"", "venueType":"Standard", "venueStatus":"Active"},
 {"cc_venueID":141, "venueID":1428454, "lat":47.70238494873, "lon":-122.32467651367, "zip":"98125", "city":"Seattle", "venueName":"Jewel Box Cafe", "state":"WA", "country":"US", "address_1":"321 NE Thornton Place ", "address_2":"(Thornton Place)", "venueType":"Standard", "venueStatus":"Active"},
 {"cc_venueID":142, "venueID":1433124, "lat":47.63497543335, "lon":-122.35736083984, "zip":"98109", "city":"Seattle", "venueName":"Le Reve Bakery", "state":"WA", "country":"US", "address_1":"1805 Queen Anne Ave. N.", "address_2":"Suite 100", "venueType":"Standard", "venueStatus":"Active"},
 {"cc_venueID":143, "venueID":1438294, "lat":47.690559387207, "lon":-122.39775085449, "zip":"98117", "city":"Seattle", "venueName":"Caffe Fiore - Sunset Hill", "state":"WA", "country":"US", "address_1":"3125 NW 85th St", "address_2":"", "venueType":"Standard", "venueStatus":"Active"},
 {"cc_venueID":144, "venueID":1445092, "lat":47.668411254883, "lon":-122.38551330566, "zip":"98107", "city":"Seattle", "venueName":"Enlighten Cafe & Art Gallery", "state":"WA", "country":"US", "address_1":"5424 Ballard Ave NW", "address_2":"", "venueType":"Standard", "venueStatus":"Inactive"},
 {"cc_venueID":145, "venueID":1447680, "lat":47.853019714355, "lon":-122.25972747803, "zip":"98087", "city":"Lynnwood", "venueName":"Starling Coffee", "state":"WA", "country":"US", "address_1":"16108 Ash Way", "address_2":"", "venueType":"Standard", "venueStatus":"Inactive"},
 {"cc_venueID":146, "venueID":1460620, "lat":47.615203857422, "lon":-122.3168258667, "zip":"98101", "city":"Seattle", "venueName":"Eltana - Capitol Hill", "state":"WA", "country":"US", "address_1":"1538 12th Avenue", "address_2":"", "venueType":"Standard", "venueStatus":"Active"},
 {"cc_venueID":147, "venueID":1467246, "lat":47.574634552002, "lon":-122.30931091309, "zip":"98144", "city":"Seattle", "venueName":"Victrola Coffee - Beacon Hill", "state":"WA", "country":"US", "address_1":"3215 Beacon Ave S", "address_2":"", "venueType":"Standard", "venueStatus":"Active"},
 {"cc_venueID":148, "venueID":19251762, "lat":47.580966949463, "lon":-122.38613891602, "zip":"98116", "city":"Seattle", "venueName":"Admiral Bird", "state":"WA", "country":"US", "address_1":"2600 California Ave SW", "address_2":"", "venueType":"Standard", "venueStatus":"Active"},
 {"cc_venueID":149, "venueID":1470041, "lat":47.719814300537, "lon":-122.29566955566, "zip":"98125", "city":"Seattle", "venueName":"Kaffeeklatsch Seattle", "state":"WA", "country":"US", "address_1":"12513 Lake City Way NE", "address_2":"", "venueType":"Standard", "venueStatus":"Active"},
 {"cc_venueID":150, "venueID":1471136, "lat":47.671535491943, "lon":-122.38778686523, "zip":"98107", "city":"Seattle", "venueName":"Java Bean - Ballard", "state":"WA", "country":"US", "address_1":"5819 24th Avenue Northwest", "address_2":"", "venueType":"Standard", "venueStatus":"Inactive"},
 {"cc_venueID":151, "venueID":1475977, "lat":47.670181274414, "lon":-122.37622833252, "zip":"98107", "city":"Seattle", "venueName":"Cafe Cuzco", "state":"WA", "country":"US", "address_1":"5701 15th Avenue Northwest", "address_2":"", "venueType":"Standard", "venueStatus":"Inactive"},
 {"cc_venueID":152, "venueID":16516102, "lat":47.691040039062, "lon":-122.3556060791, "zip":"98103", "city":"Seattle", "venueName":"Green Bean Coffeehouse", "state":"WA", "country":"US", "address_1":"8525 Greenwood Ave.", "address_2":"", "venueType":"Standard", "venueStatus":"Inactive"},
 {"cc_venueID":153, "venueID":1493929, "lat":47.666709899902, "lon":-122.3833694458, "zip":"98107", "city":"Seattle", "venueName":"Cugini Cafe", "state":"WA", "country":"US", "address_1":"5306 Ballard Ave NW", "address_2":"", "venueType":"Standard", "venueStatus":"Inactive"},
 {"cc_venueID":154, "venueID":1498921, "lat":47.612899780273, "lon":-122.31675720215, "zip":"98122", "city":"Seattle", "venueName":"High 5 Pie", "state":"WA", "country":"US", "address_1":"1400 12th Avenue ", "address_2":"", "venueType":"Standard", "venueStatus":"Inactive"},
 {"cc_venueID":155, "venueID":1511865, "lat":47.561878204346, "lon":-122.2943572998, "zip":"98101", "city":"Seattle", "venueName":"St. Dames", "state":"WA", "country":"US", "address_1":"4525 Martin Luther King Jr Way S", "address_2":"", "venueType":"Other", "venueStatus":"Inactive"},
 {"cc_venueID":156, "venueID":1520745, "lat":47.601066589355, "lon":-122.3293838501, "zip":"98104", "city":"Seattle", "venueName":"Caffe Vita - Pioneer Square", "state":"WA", "country":"US", "address_1":"125 Prefontaine Place S", "address_2":"", "venueType":"Standard", "venueStatus":"Active"},
 {"cc_venueID":157, "venueID":1521692, "lat":47.71117401123, "lon":-122.31790924072, "zip":"98125", "city":"Seattle", "venueName":"Bark Espresso", "state":"WA", "country":"US", "address_1":"11335 Roosevelt Way Northeast", "address_2":"", "venueType":"Standard", "venueStatus":"Active"},
 {"cc_venueID":158, "venueID":1526412, "lat":47.676063537598, "lon":-122.36270904541, "zip":"98117", "city":"Seattle", "venueName":"Ridgeback Cafe", "state":"WA", "country":"US", "address_1":"500 NW 65th Street", "address_2":"", "venueType":"Standard", "venueStatus":"Inactive"},
 {"cc_venueID":159, "venueID":1530865, "lat":47.25520324707, "lon":-122.48303222656, "zip":"98406", "city":"Tacoma", "venueName":"Metronome Coffee ", "state":"WA", "country":"US", "address_1":"3518 6th Ave. ", "address_2":"", "venueType":"Standard", "venueStatus":"Inactive"},
 {"cc_venueID":160, "venueID":1544546, "lat":47.620265960693, "lon":-122.33109283447, "zip":"98109", "city":"Seattle", "venueName":"North Tower Community Room  Alley 24", "state":"WA", "country":"US", "address_1":"224 Pontius Ave N", "address_2":"", "venueType":"Other", "venueStatus":"Active"},
 {"cc_venueID":161, "venueID":1545522, "lat":47.601779937744, "lon":-122.30657196045, "zip":"98122", "city":"Seattle", "venueName":"SOHO Coffee Company", "state":"WA", "country":"US", "address_1":"1918 East Yesler Way", "address_2":"", "venueType":"Standard", "venueStatus":"Inactive"},
 {"cc_venueID":162, "venueID":1556958, "lat":47.682643890381, "lon":-122.35527801514, "zip":"98103", "city":"Seattle", "venueName":"Caffe Vita - Greenwood", "state":"WA", "country":"US", "address_1":"7402 Greenwood Avenue North", "address_2":"", "venueType":"Standard", "venueStatus":"Inactive"},
 {"cc_venueID":163, "venueID":1585363, "lat":47.623039245605, "lon":-122.31295013428, "zip":"98112", "city":"Seattle", "venueName":"Caffe Ladro - Capitol Hill", "state":"WA", "country":"US", "address_1":"435 15th Avenue East", "address_2":"", "venueType":"Standard", "venueStatus":"Active"},
 {"cc_venueID":164, "venueID":1608108, "lat":47.69490814209, "lon":-122.37455749512, "zip":"98117", "city":"Seattle", "venueName":"Holy Grounds Coffee - Crown Hill", "state":"WA", "country":"US", "address_1":"9000 Holman Road NW", "address_2":"", "venueType":"Standard", "venueStatus":"Inactive"},
 {"cc_venueID":165, "venueID":1610157, "lat":47.945434570312, "lon":-122.30387115479, "zip":"98275", "city":"Mukilteo", "venueName":"Red Cup Cafe", "state":"WA", "country":"US", "address_1":"619 4th Street", "address_2":"", "venueType":"Standard", "venueStatus":"Active"},
 {"cc_venueID":166, "venueID":1622586, "lat":47.621513366699, "lon":-122.35060882568, "zip":"98109", "city":"Seattle", "venueName":"Fischer Pavillion", "state":"WA", "country":"US", "address_1":"305 Harrison St", "address_2":"", "venueType":"Other", "venueStatus":"Active"},
 {"cc_venueID":167, "venueID":1623779, "lat":47.613040924072, "lon":-122.30610656738, "zip":"98122", "city":"Seattle", "venueName":"Katy's Corner Cafe", "state":"WA", "country":"US", "address_1":"2000 East Union Street", "address_2":"", "venueType":"Standard", "venueStatus":"Active"},
 {"cc_venueID":168, "venueID":1691321, "lat":47.66157913208, "lon":-122.33099365234, "zip":"98103", "city":"Seattle", "venueName":"Uptown Espresso - Wallingford", "state":"WA", "country":"US", "address_1":"2300 N. 45th St.", "address_2":"", "venueType":"Standard", "venueStatus":"Inactive"},
 {"cc_venueID":169, "venueID":1758831, "lat":47.579128265381, "lon":-122.41103363037, "zip":"98116", "city":"Seattle", "venueName":"Beachside Cafe on Alki", "state":"WA", "country":"US", "address_1":"2738 Alki Ave. SW", "address_2":"", "venueType":"Standard", "venueStatus":"Inactive"},
 {"cc_venueID":170, "venueID":1979101, "lat":47.594619750977, "lon":-122.30944824219, "zip":"98144", "city":"Seattle", "venueName":"Cafe Weekend", "state":"WA", "country":"US", "address_1":"851 Hiawatha Place S", "address_2":"", "venueType":"Standard", "venueStatus":"Active"},
 {"cc_venueID":171, "venueID":26365747, "lat":47.25564, "lon":-122.46622, "zip":"98403", "city":"Tacoma", "venueName":"Bluebeard Coffee Roasters", "state":"WA", "country":"US", "address_1":"2201 6th Ave", "address_2":"", "venueType":"Standard", "venueStatus":"Active"},
 {"cc_venueID":172, "venueID":2233571, "lat":47.632377624512, "lon":-122.36071014404, "zip":"98119", "city":"Seattle", "venueName":"Caffe Fiore - Queen Anne", "state":"WA", "country":"US", "address_1":"224 W Galer St", "address_2":"", "venueType":"Standard", "venueStatus":"Active"},
 {"cc_venueID":173, "venueID":2361131, "lat":47.682682037354, "lon":-122.35546112061, "zip":"98103", "city":"Seattle", "venueName":"74th Street Ale House", "state":"WA", "country":"US", "address_1":"7401 Greenwood Avenue North", "address_2":"", "venueType":"Other", "venueStatus":"Active"},
 {"cc_venueID":174, "venueID":2992561, "lat":47.807281494141, "lon":-122.37875366211, "zip":"98020", "city":"Edmonds", "venueName":"Walnut Street Coffee", "state":"WA", "country":"US", "address_1":"410 Walnut Street", "address_2":"", "venueType":"Standard", "venueStatus":"Active"},
 {"cc_venueID":175, "venueID":3013531, "lat":47.626220703125, "lon":-122.29211425781, "zip":"98112", "city":"Seattle", "venueName":"Arosa Cafe", "state":"WA", "country":"US", "address_1":"3121 E Madison St # 101", "address_2":"", "venueType":"Standard", "venueStatus":"Active"},
 {"cc_venueID":176, "venueID":3297272, "lat":47.618629455566, "lon":-122.19119262695, "zip":"98004", "city":"Bellevue", "venueName":"French Bakery", "state":"WA", "country":"US", "address_1":"909 112th Ave NE", "address_2":"# 106", "venueType":"Standard", "venueStatus":"Active"},
 {"cc_venueID":177, "venueID":3781102, "lat":47.691394805908, "lon":-122.29082489014, "zip":"98115", "city":"Seattle", "venueName":"Cafe Javasti - Wedgwood", "state":"WA", "country":"US", "address_1":"8617 35th Ave NE", "address_2":"", "venueType":"Standard", "venueStatus":"Active"},
 {"cc_venueID":178, "venueID":3795562, "lat":47.611389160156, "lon":-122.33168029785, "zip":"98101", "city":"Seattle", "venueName":"Washington State Convention Center", "state":"WA", "country":"US", "address_1":"800 Convention Place", "address_2":"", "venueType":"Other", "venueStatus":"Active"},
 {"cc_venueID":179, "venueID":3874152, "lat":47.717990875244, "lon":-122.33233642578, "zip":"98133", "city":"Seattle", "venueName":"Bridge Coffee House", "state":"WA", "country":"US", "address_1":"2150 N 122nd St", "address_2":"", "venueType":"Standard", "venueStatus":"Active"},
 {"cc_venueID":180, "venueID":3894662, "lat":47.593467712402, "lon":-122.33374023438, "zip":"98134", "city":"Seattle", "venueName":"Occhio Cafe", "state":"WA", "country":"US", "address_1":"1022 1st Avenue South", "address_2":"", "venueType":"Standard", "venueStatus":"Inactive"},
 {"cc_venueID":181, "venueID":3910122, "lat":47.675357818604, "lon":-122.20090484619, "zip":"98033", "city":"Kirkland", "venueName":"St. James Espresso", "state":"WA", "country":"US", "address_1":"355 Kirkland Ave", "address_2":"", "venueType":"Standard", "venueStatus":"Inactive"},
 {"cc_venueID":182, "venueID":4124902, "lat":47.639553070068, "lon":-122.39963531494, "zip":"98199", "city":"Seattle", "venueName":"Magnolia Uptown Espresso", "state":"WA", "country":"US", "address_1":"33rd Ave West at West McGraw", "address_2":"", "venueType":"Standard", "venueStatus":"Active"},
 {"cc_venueID":183, "venueID":4190072, "lat":47.619533538818, "lon":-122.19633483887, "zip":"98004", "city":"Bellevue", "venueName":"Cafe Cesura", "state":"WA", "country":"US", "address_1":"1015 108th Ave NE", "address_2":"", "venueType":"Standard", "venueStatus":"Active"},
 {"cc_venueID":184, "venueID":4236542, "lat":47.601779937744, "lon":-122.30657196045, "zip":"98122", "city":"Seattle", "venueName":"Broadcast Coffee - Central District", "state":"WA", "country":"US", "address_1":"1918 E Yesler Way", "address_2":"", "venueType":"Standard", "venueStatus":"Active"},
 {"cc_venueID":185, "venueID":25530252, "lat":47.649437, "lon":-122.347778, "zip":"", "city":"Seattle", "venueName":"Milstead & Co.", "state":"WA", "country":"US", "address_1":"754 North 34th Street", "address_2":"", "venueType":"Standard", "venueStatus":"Active"},
 {"cc_venueID":186, "venueID":23719196, "lat":47.617233276367, "lon":-122.34918212891, "zip":"98121", "city":"Seattle", "venueName":"Street Bean Coffee - Belltown", "state":"WA", "country":"US", "address_1":"2711 3rd Ave", "address_2":"", "venueType":"Standard", "venueStatus":"Active"},
 {"cc_venueID":187, "venueID":4569792, "lat":47.583717346191, "lon":-122.3860244751, "zip":"98116", "city":"Seattle", "venueName":"Caffe Fiore - West Seattle", "state":"WA", "country":"US", "address_1":"2206 California Ave SW", "address_2":"", "venueType":"Standard", "venueStatus":"Active"},
 {"cc_venueID":188, "venueID":4706712, "lat":47.622505187988, "lon":-122.33866119385, "zip":"98109", "city":"Seattle", "venueName":"Kakao Coffee and Chocolate", "state":"WA", "country":"US", "address_1":"415 Westlake", "address_2":"", "venueType":"Standard", "venueStatus":"Active"},
 {"cc_venueID":189, "venueID":4975262, "lat":47.469673156738, "lon":-122.228515625, "zip":"98057", "city":"Renton", "venueName":"Caffe Felice", "state":"WA", "country":"US", "address_1":"815 N. 10th St", "address_2":"#F", "venueType":"Standard", "venueStatus":"Inactive"},
 {"cc_venueID":190, "venueID":5210152, "lat":47.691833496094, "lon":-122.35508728027, "zip":"98103", "city":"Seattle", "venueName":"Naked City Brewery & Taphouse", "state":"WA", "country":"US", "address_1":"8564 Greenwood Avenue North", "address_2":"", "venueType":"Other", "venueStatus":"Active"},
 {"cc_venueID":191, "venueID":5213002, "lat":47.604866027832, "lon":-122.33080291748, "zip":"98104", "city":"Seattle", "venueName":"Starbucks - Columbia Tower Club", "state":"WA", "country":"US", "address_1":"701 5th Avenue", "address_2":"", "venueType":"Standard", "venueStatus":"Active"},
 {"cc_venueID":192, "venueID":5247182, "lat":47.641925811768, "lon":-122.32604980469, "zip":"98102", "city":"Seattle", "venueName":"Louisa's Cafe and Bakery", "state":"WA", "country":"US", "address_1":"2379 Eastlake Avenue East", "address_2":"", "venueType":"Standard", "venueStatus":"Inactive"},
 {"cc_venueID":193, "venueID":5631502, "lat":47.624080657959, "lon":-122.29558563232, "zip":"98112", "city":"Seattle", "venueName":"East Madison Street Coffee Bar & Deli", "state":"WA", "country":"US", "address_1":"2818 E Madison St", "address_2":"", "venueType":"Standard", "venueStatus":"Inactive"},
 {"cc_venueID":194, "venueID":5847642, "lat":47.617989, "lon":-122.347649, "zip":"98121", "city":"Seattle", "venueName":"Tilikum Place Cafe", "state":"WA", "country":"US", "address_1":"407 Cedar Street", "address_2":"", "venueType":"Standard", "venueStatus":"Active"},
 {"cc_venueID":195, "venueID":5905742, "lat":47.667583, "lon":-122.384941, "zip":"98107", "city":"Seattle", "venueName":"Miro Tea", "state":"WA", "country":"US", "address_1":"5405 Ballard Ave NW", "address_2":"", "venueType":"Standard", "venueStatus":"Active"},
 {"cc_venueID":196, "venueID":6195692, "lat":47.666667938232, "lon":-122.38367462158, "zip":"98107", "city":"Seattle", "venueName":"Fresh Flours - Ballard", "state":"WA", "country":"US", "address_1":"5313 Ballard Ave NW", "address_2":"", "venueType":"Standard", "venueStatus":"Inactive"},
 {"cc_venueID":197, "venueID":6511002, "lat":49.263229370117, "lon":-123.11728668213, "zip":"V5Z 3C4", "city":"Vancouver", "venueName":"Elysian Coffee Broadway", "state":"BC", "country":"CA", "address_1":"590 West Broadway", "address_2":"", "venueType":"Standard", "venueStatus":"Active"},
 {"cc_venueID":198, "venueID":6670802, "lat":47.572925567627, "lon":-122.62940979004, "zip":"98337", "city":"Bremerton", "venueName":"Samudra Coffee Tea & Treats", "state":"WA", "country":"US", "address_1":"1223 McKenzie Ave", "address_2":"", "venueType":"Standard", "venueStatus":"Inactive"},
 {"cc_venueID":199, "venueID":6999842, "lat":47.685623168945, "lon":-122.33674621582, "zip":"98103", "city":"Seattle", "venueName":"Cake Envy", "state":"WA", "country":"US", "address_1":"7900 East Green Lake Drive North", "address_2":"", "venueType":"Standard", "venueStatus":"Inactive"},
 {"cc_venueID":200, "venueID":7224192, "lat":47.678218841553, "lon":-122.32647705078, "zip":"98115", "city":"Seattle", "venueName":"Fix Coffeehouse", "state":"WA", "country":"US", "address_1":"6900 East Green Lake Way North", "address_2":"", "venueType":"Standard", "venueStatus":"Inactive"},
 {"cc_venueID":201, "venueID":7390992, "lat":47.626003265381, "lon":-122.29194641113, "zip":"98112", "city":"Seattle", "venueName":"Belle Epicurean - Madison Park", "state":"WA", "country":"US", "address_1":"3109 E. Madison Street", "address_2":"", "venueType":"Standard", "venueStatus":"Active"},
 {"cc_venueID":202, "venueID":7492422, "lat":47.679664611816, "lon":-122.36061859131, "zip":"98117", "city":"Seattle", "venueName":"Tony's Coffee - Espresso Training Lab ", "state":"WA", "country":"US", "address_1":"7001 NW 3rd Ave", "address_2":"", "venueType":"Standard", "venueStatus":"Inactive"},
 {"cc_venueID":203, "venueID":9941432, "lat":47.624092102051, "lon":-122.29480743408, "zip":"98112", "city":"Seattle", "venueName":"Ines Pastries", "state":"WA", "country":"US", "address_1":"2909 E Madison St", "address_2":"", "venueType":"Standard", "venueStatus":"Inactive"},
 {"cc_venueID":204, "venueID":7814642, "lat":45.513446807861, "lon":-122.6604385376, "zip":"97214", "city":"Portland", "venueName":"Coava Coffee", "state":"OR", "country":"US", "address_1":"1300 SE Grand Ave", "address_2":"", "venueType":"Standard", "venueStatus":"Active"},
 {"cc_venueID":205, "venueID":8133592, "lat":47.613315582275, "lon":-122.28912353516, "zip":"98122", "city":"Seattle", "venueName":"Hi-Spot Cafe", "state":"WA", "country":"US", "address_1":"1410 34th Avenue", "address_2":"", "venueType":"Standard", "venueStatus":"Active"},
 {"cc_venueID":206, "venueID":8170482, "lat":47.682697296143, "lon":-122.35499572754, "zip":"98103", "city":"Seattle", "venueName":"Bluebird Microcreamery", "state":"WA", "country":"US", "address_1":"7400 Greenwood Ave N", "address_2":"", "venueType":"Standard", "venueStatus":"Active"},
 {"cc_venueID":207, "venueID":8311762, "lat":47.664516448975, "lon":-122.11441802979, "zip":"98052", "city":"Redmond", "venueName":"Marymoor Velodrome", "state":"WA", "country":"US", "address_1":"6046 West Lake Sammamish Parkway NE", "address_2":"", "venueType":"Other", "venueStatus":"Active"},
 {"cc_venueID":208, "venueID":8314532, "lat":47.636009216309, "lon":-122.27793884277, "zip":"98112", "city":"Seattle", "venueName":"Madison Park Bakery", "state":"WA", "country":"US", "address_1":"4214 East Madison Street", "address_2":"", "venueType":"Standard", "venueStatus":"Active"},
 {"cc_venueID":209, "venueID":8620662, "lat":47.664016723633, "lon":-122.104637146, "zip":"98052", "city":"Redmond", "venueName":"Lucky Jack's Latte", "state":"WA", "country":"US", "address_1":"17648 NE 65th St", "address_2":"", "venueType":"Standard", "venueStatus":"Inactive"},
 {"cc_venueID":210, "venueID":8625822, "lat":47.621635437012, "lon":-122.35070037842, "zip":"98109", "city":"Seattle", "venueName":"Seattle Center Mural Amphitheater", "state":"WA", "country":"US", "address_1":"305 Harrison St.", "address_2":"", "venueType":"Other", "venueStatus":"Active"},
 {"cc_venueID":211, "venueID":8718872, "lat":47.620532989502, "lon":-122.32529449463, "zip":"98102", "city":"Seattle", "venueName":"Analog Coffee", "state":"WA", "country":"US", "address_1":"235 Summit Avenue East", "address_2":"", "venueType":"Standard", "venueStatus":"Active"},
 {"cc_venueID":212, "venueID":8737552, "lat":47.668926239014, "lon":-122.38729095459, "zip":"98107", "city":"Seattle", "venueName":"La Isla Seattle", "state":"WA", "country":"US", "address_1":"2320 Northwest Market Street", "address_2":"", "venueType":"Other", "venueStatus":"Active"},
 {"cc_venueID":213, "venueID":8759942, "lat":47.63081741333, "lon":-122.37382507324, "zip":"98119", "city":"Seattle", "venueName":"Batch 206 Distillery", "state":"WA", "country":"US", "address_1":"1417 Elliott Ave W", "address_2":"", "venueType":"Other", "venueStatus":"Active"},
 {"cc_venueID":214, "venueID":8769462, "lat":47.518222808838, "lon":-122.35571289062, "zip":"98106", "city":"Seattle", "venueName":"Cafe Rozella", "state":"WA", "country":"US", "address_1":"9434 Delridge Way SW", "address_2":"", "venueType":"Standard", "venueStatus":"Inactive"},
 {"cc_venueID":215, "venueID":8839452, "lat":47.607105, "lon":-122.324623, "zip":"98104", "city":"Seattle", "venueName":"Caf\u00e9 Frieda - Frye Art Museum", "state":"WA", "country":"US", "address_1":"704 Terry Avenue", "address_2":"", "venueType":"Standard", "venueStatus":"Active"},
 {"cc_venueID":216, "venueID":8919752, "lat":47.615936279297, "lon":-122.32714080811, "zip":"98122", "city":"Seattle", "venueName":"Broadcast Coffee - Capitol Hill", "state":"WA", "country":"US", "address_1":"1623 Bellevue Ave.", "address_2":"", "venueType":"Standard", "venueStatus":"Inactive"},
 {"cc_venueID":217, "venueID":9099832, "lat":47.650520324707, "lon":-122.35174560547, "zip":"98103", "city":"Seattle", "venueName":"Wine Tea Chocolate", "state":"WA", "country":"US", "address_1":"3417 Evanston Ave. N. #102", "address_2":"", "venueType":"Standard", "venueStatus":"Inactive"},
 {"cc_venueID":218, "venueID":9740192, "lat":47.662246704102, "lon":-122.37538909912, "zip":"98107", "city":"Seattle", "venueName":"Top Pot Doughnuts - Ballard", "state":"WA", "country":"US", "address_1":"1416 NW 46th St", "address_2":"", "venueType":"Standard", "venueStatus":"Active"},
 {"cc_venueID":219, "venueID":23752914, "lat":47.664443969727, "lon":-122.37766265869, "zip":"98107", "city":"Seattle", "venueName":"Mmmhmm Coffee @ Hilliards Brewery", "state":"WA", "country":"US", "address_1":"1550 NW 49th Street", "address_2":"", "venueType":"Standard", "venueStatus":"Inactive"},
 {"cc_venueID":220, "venueID":9804112, "lat":47.642383575439, "lon":-122.34382629395, "zip":"98109", "city":"Seattle", "venueName":"Conduit Coffee", "state":"WA", "country":"US", "address_1":"2501 Westlake Ave N", "address_2":"", "venueType":"Standard", "venueStatus":"Active"},
 {"cc_venueID":221, "venueID":10111362, "lat":47.658679962158, "lon":-122.38993835449, "zip":"98199", "city":"Seattle", "venueName":"Gilman Ave Coffee and Doughnuts ", "state":"WA", "country":"US", "address_1":"4211 Gilman Avenue W", "address_2":"", "venueType":"Standard", "venueStatus":"Inactive"},
 {"cc_venueID":222, "venueID":10114382, "lat":47.537567138672, "lon":-122.28092956543, "zip":"98118", "city":"Seattle", "venueName":"Whistle Stop Co-op", "state":"WA", "country":"US", "address_1":"7148 Martin Luther King Junior Way South", "address_2":"", "venueType":"Standard", "venueStatus":"Inactive"},
 {"cc_venueID":223, "venueID":10428952, "lat":47.54475402832, "lon":-122.38747406006, "zip":"98136", "city":"Seattle", "venueName":"Starbucks - West Seattle", "state":"WA", "country":"US", "address_1":"6501 California Ave SW", "address_2":"", "venueType":"Standard", "venueStatus":"Active"},
 {"cc_venueID":224, "venueID":10575402, "lat":47.516647338867, "lon":-122.35480499268, "zip":"98106", "city":"Seattle", "venueName":"Caffe Delia", "state":"WA", "country":"US", "address_1":"9622 16th Avenue Southwest", "address_2":"", "venueType":"Standard", "venueStatus":"Inactive"},
 {"cc_venueID":225, "venueID":10842822, "lat":47.676651000977, "lon":-122.20809173584, "zip":"98033", "city":"Kirkland", "venueName":"Caffe Ladro - Kirkland", "state":"WA", "country":"US", "address_1":"104 Central Way", "address_2":"", "venueType":"Standard", "venueStatus":"Active"},
 {"cc_venueID":226, "venueID":10988532, "lat":47.668827056885, "lon":-122.38640594482, "zip":"98107", "city":"Seattle", "venueName":"Ballard Station Public House", "state":"WA", "country":"US", "address_1":"2236 Northwest Market Street", "address_2":"", "venueType":"Other", "venueStatus":"Active"},
 {"cc_venueID":227, "venueID":11027052, "lat":47.66145324707, "lon":-122.32537078857, "zip":"98105", "city":"Seattle", "venueName":"A Muddy Cup Cafe & Roastery", "state":"WA", "country":"US", "address_1":"266 Northeast 45th Street", "address_2":"", "venueType":"Standard", "venueStatus":"Active"},
 {"cc_venueID":228, "venueID":11210732, "lat":47.615077972412, "lon":-122.32524871826, "zip":"98122", "city":"Seattle", "venueName":"Black Coffee Co-op", "state":"WA", "country":"US", "address_1":"501 East Pine Street", "address_2":"", "venueType":"Standard", "venueStatus":"Inactive"},
 {"cc_venueID":229, "venueID":11365732, "lat":47.807907104492, "lon":-122.34774780273, "zip":"98026", "city":"Edmonds", "venueName":"Caffe Ladro - Edmonds", "state":"WA", "country":"US", "address_1":"8403 Main Street", "address_2":"", "venueType":"Standard", "venueStatus":"Active"},
 {"cc_venueID":230, "venueID":11762872, "lat":47.635482788086, "lon":-122.27896881104, "zip":"98112", "city":"Seattle", "venueName":"Madison Kitchen", "state":"WA", "country":"US", "address_1":"4122 E Madison St", "address_2":"", "venueType":"Other", "venueStatus":"Active"},
 {"cc_venueID":231, "venueID":12132172, "lat":47.624011993408, "lon":-122.29552459717, "zip":"98112", "city":"Seattle", "venueName":"Harbour Pointe Coffeehouse", "state":"WA", "country":"US", "address_1":"2818 E Madison St", "address_2":"", "venueType":"Standard", "venueStatus":"Inactive"},
 {"cc_venueID":232, "venueID":12416522, "lat":47.666954040527, "lon":-122.38264465332, "zip":"98107", "city":"Seattle", "venueName":"B & O Espresso - Ballard", "state":"WA", "country":"US", "address_1":"5404 Leary Ave. NW, ", "address_2":"", "venueType":"Standard", "venueStatus":"Inactive"},
 {"cc_venueID":233, "venueID":12430542, "lat":47.689571380615, "lon":-122.34450531006, "zip":"98103", "city":"Seattle", "venueName":"Boardroom Cafe", "state":"WA", "country":"US", "address_1":"8314 Aurora Avenue North", "address_2":"", "venueType":"Standard", "venueStatus":"Inactive"},
 {"cc_venueID":234, "venueID":12706182, "lat":47.659088134766, "lon":-122.35424804688, "zip":"98103", "city":"Seattle", "venueName":"Lighthouse Roasters", "state":"WA", "country":"US", "address_1":"400 N 43rd St", "address_2":"", "venueType":"Standard", "venueStatus":"Active"},
 {"cc_venueID":235, "venueID":13294632, "lat":47.609844207764, "lon":-122.34224700928, "zip":"98101", "city":"Seattle", "venueName":"Le Panier Very French Bakery", "state":"WA", "country":"US", "address_1":"1902 Pike Place", "address_2":"", "venueType":"Standard", "venueStatus":"Active"},
 {"cc_venueID":236, "venueID":13361922, "lat":47.6696434021, "lon":-122.37385559082, "zip":"98107", "city":"Seattle", "venueName":"Equal Exchange Espresso", "state":"WA", "country":"US", "address_1":"1400 Northwest 56th Street", "address_2":"Ballard Market", "venueType":"Standard", "venueStatus":"Inactive"},
 {"cc_venueID":237, "venueID":13539622, "lat":47.624057769775, "lon":-122.35921478271, "zip":"98119", "city":"Seattle", "venueName":"Nielsen's Pastries", "state":"WA", "country":"US", "address_1":"520 2nd Avenue West", "address_2":"", "venueType":"Standard", "venueStatus":"Active"},
 {"cc_venueID":238, "venueID":13973152, "lat":47.614803314209, "lon":-122.34330749512, "zip":"98121", "city":"Seattle", "venueName":"Yellow Leaf Cupcake Co.", "state":"WA", "country":"US", "address_1":"2209 4th Avenue", "address_2":"", "venueType":"Standard", "venueStatus":"Active"},
 {"cc_venueID":239, "venueID":14060852, "lat":47.664653778076, "lon":-122.31296539307, "zip":"98105", "city":"Seattle", "venueName":"Sound Coffee and Morsel", "state":"WA", "country":"US", "address_1":"4754 University Way Northeast", "address_2":"", "venueType":"Standard", "venueStatus":"Active"},
 {"cc_venueID":240, "venueID":14171312, "lat":47.638641357422, "lon":-122.35710906982, "zip":"98109", "city":"Seattle", "venueName":"Caffe Ladro - Upper Queen Anne", "state":"WA", "country":"US", "address_1":"2205 Queen Anne Ave N", "address_2":"", "venueType":"Standard", "venueStatus":"Active"},
 {"cc_venueID":241, "venueID":14279142, "lat":47.529956817627, "lon":-121.87274932861, "zip":"98065", "city":"Snoqualmie", "venueName":"SnoValley Coffee Company", "state":"WA", "country":"US", "address_1":"7811 Center Boulevard Southeast", "address_2":"", "venueType":"Standard", "venueStatus":"Inactive"},
 {"cc_venueID":242, "venueID":14482072, "lat":47.615421295166, "lon":-122.34020233154, "zip":"98121", "city":"Seattle", "venueName":"Top Pot Doughnuts - Belltown", "state":"WA", "country":"US", "address_1":"2124 5th Avenue", "address_2":"", "venueType":"Standard", "venueStatus":"Active"},
 {"cc_venueID":243, "venueID":14681722, "lat":47.661220550537, "lon":-122.34226226807, "zip":"98103", "city":"Seattle", "venueName":"Caffe Appassionato (aka The Bounty)", "state":"WA", "country":"US", "address_1":"1218 North 45th ", "address_2":"", "venueType":"Standard", "venueStatus":"Active"},
 {"cc_venueID":244, "venueID":14807192, "lat":47.660346984863, "lon":-122.35013580322, "zip":"98103", "city":"Seattle", "venueName":"Vif Wine|Coffee", "state":"WA", "country":"US", "address_1":"4401 Fremont Ave N ", "address_2":"", "venueType":"Standard", "venueStatus":"Active"},
 {"cc_venueID":245, "venueID":14978392, "lat":47.623785, "lon":-122.320627, "zip":"98102", "city":"Seattle", "venueName":"Espresso Vivace - Roasteria", "state":"WA", "country":"US", "address_1":"532 Broadway E", "address_2":"", "venueType":"Standard", "venueStatus":"Active"},
 {"cc_venueID":246, "venueID":15082622, "lat":47.688503265381, "lon":-122.29061889648, "zip":"98115", "city":"Seattle", "venueName":"Van Gogh Coffeehouse", "state":"WA", "country":"US", "address_1":"8210 35th Ave NE", "address_2":"", "venueType":"Standard", "venueStatus":"Active"},
 {"cc_venueID":247, "venueID":15121322, "lat":47.616020202637, "lon":-122.33820343018, "zip":"98121", "city":"Seattle", "venueName":"A/NT: A Non-Traditional Gallery", "state":"WA", "country":"US", "address_1":"2045 Westlake Avenue", "address_2":"", "venueType":"Other", "venueStatus":"Active"},
 {"cc_venueID":248, "venueID":15143812, "lat":47.632072, "lon":-122.356728, "zip":"98119", "city":"Seattle", "venueName":"Cederberg Tea House", "state":"WA", "country":"US", "address_1":"1417 Queen Anne Avenue North", "address_2":"", "venueType":"Standard", "venueStatus":"Active"},
 {"cc_venueID":249, "venueID":15204052, "lat":47.668384552002, "lon":-122.36334991455, "zip":"98177", "city":"Seattle", "venueName":"Slate Coffee - Ballard", "state":"WA", "country":"US", "address_1":"5413 6th Ave NW", "address_2":"", "venueType":"Standard", "venueStatus":"Active"},
 {"cc_venueID":250, "venueID":15340072, "lat":47.545764923096, "lon":-122.05951690674, "zip":"98027", "city":"Issaquah", "venueName":"Starbucks - Issaquah Meadows", "state":"WA", "country":"US", "address_1":"1460 NW Gilman Blvd", "address_2":"", "venueType":"Standard", "venueStatus":"Active"},
 {"cc_venueID":251, "venueID":15375892, "lat":47.67013168335, "lon":-122.38752746582, "zip":"98107", "city":"Seattle", "venueName":"Toast Ballard", "state":"WA", "country":"US", "address_1":"5615 24th Ave NW", "address_2":"", "venueType":"Standard", "venueStatus":"Inactive"},
 {"cc_venueID":252, "venueID":15377892, "lat":47.659423828125, "lon":-122.34973144531, "zip":"98103", "city":"Seattle", "venueName":"RockCreek Seafood & Spirits", "state":"WA", "country":"US", "address_1":"4300 Fremont Avenue North", "address_2":"", "venueType":"Other", "venueStatus":"Active"},
 {"cc_venueID":253, "venueID":15713112, "lat":47.608932495117, "lon":-122.34037017822, "zip":"98101", "city":"Seattle", "venueName":"Storyville Coffee - Pike Place", "state":"WA", "country":"US", "address_1":"94 Pike St", "address_2":"", "venueType":"Standard", "venueStatus":"Active"},
 {"cc_venueID":254, "venueID":15779552, "lat":47.620014190674, "lon":-122.3363494873, "zip":"98109", "city":"Seattle", "venueName":"Thruline Coffee (was Rococo Coffee) - SLU / Amazon", "state":"WA", "country":"US", "address_1":"207 Boren Ave N", "address_2":"", "venueType":"Standard", "venueStatus":"Active"},
 {"cc_venueID":255, "venueID":15957282, "lat":47.673965454102, "lon":-122.40636444092, "zip":"98107", "city":"Seattle", "venueName":"Geo's Cuban & Creole Cafe ", "state":"WA", "country":"US", "address_1":"6301 Seaview Ave NW", "address_2":"", "venueType":"Other", "venueStatus":"Active"},
 {"cc_venueID":256, "venueID":16069172, "lat":47.609043, "lon":-122.332024, "zip":"98101", "city":"Seattle", "venueName":"Voxx Coffee - Downtown", "state":"WA", "country":"US", "address_1":"1200 Seattle 98101 6th Ave", "address_2":"", "venueType":"Standard", "venueStatus":"Active"},
 {"cc_venueID":257, "venueID":16256932, "lat":47.519828796387, "lon":-122.2613067627, "zip":"98118", "city":"Seattle", "venueName":"South Beach Espresso", "state":"WA", "country":"US", "address_1":"9262 57th Ave S", "address_2":"", "venueType":"Standard", "venueStatus":"Inactive"},
 {"cc_venueID":258, "venueID":16377462, "lat":47.63703918457, "lon":-122.35710144043, "zip":"98109", "city":"Seattle", "venueName":"Cupcake Royale - Queen Anne", "state":"WA", "country":"US", "address_1":"1935 Queen Anne Ave", "address_2":"", "venueType":"Standard", "venueStatus":"Inactive"},
 {"cc_venueID":259, "venueID":16456392, "lat":47.858600616455, "lon":-122.22022247314, "zip":"98012", "city":"Mill Creek", "venueName":"Spotted Cow Coffee Co", "state":"WA", "country":"US", "address_1":"15118 Main Street, ste 700", "address_2":"", "venueType":"Standard", "venueStatus":"Active"},
 {"cc_venueID":260, "venueID":23565998, "lat":47.668392, "lon":-122.382439, "zip":"", "city":"Seattle", "venueName":"Bauhaus Ballard ", "state":"WA", "country":"US", "address_1":"2001 NW Market St", "address_2":"", "venueType":"Standard", "venueStatus":"Active"},
 {"cc_venueID":261, "venueID":16561732, "lat":47.611209869385, "lon":-122.34082794189, "zip":"98101", "city":"Seattle", "venueName":"Moore Coffee Shop", "state":"WA", "country":"US", "address_1":"1930 2nd Avenue", "address_2":"", "venueType":"Standard", "venueStatus":"Active"},
 {"cc_venueID":262, "venueID":17038612, "lat":47.551788330078, "lon":-122.27764129639, "zip":"98118", "city":"Seattle", "venueName":"Tin Umbrella Coffee", "state":"WA", "country":"US", "address_1":"5600 Rainier Avenue S", "address_2":"", "venueType":"Standard", "venueStatus":"Inactive"},
 {"cc_venueID":263, "venueID":17467182, "lat":47.763006, "lon":-122.2094332, "zip":"98011", "city":"Bothell", "venueName":"Caffe Ladro - Bothell", "state":"WA", "country":"US", "address_1":"18610 Bothell Way NE", "address_2":"", "venueType":"Standard", "venueStatus":"Active"},
 {"cc_venueID":264, "venueID":17554482, "lat":47.627277374268, "lon":-122.34238433838, "zip":"98109", "city":"Seattle", "venueName":"Herkimer Coffee - Dexter", "state":"WA", "country":"US", "address_1":"901 Dexter Avenue N.", "address_2":"", "venueType":"Standard", "venueStatus":"Active"},
 {"cc_venueID":265, "venueID":17850352, "lat":47.598155975342, "lon":-122.32497406006, "zip":"98104", "city":"Seattle", "venueName":"Eastern Cafe", "state":"WA", "country":"US", "address_1":"510 Maynard Ave S", "address_2":"", "venueType":"Standard", "venueStatus":"Active"},
 {"cc_venueID":266, "venueID":17939152, "lat":47.6768, "lon":-122.207382, "zip":"98033", "city":"Kirkland", "venueName":"Aura Bakery", "state":"WA", "country":"US", "address_1":"116 Central Way", "address_2":"", "venueType":"Standard", "venueStatus":"Inactive"},
 {"cc_venueID":267, "venueID":18242672, "lat":47.6494140625, "lon":-122.3487701416, "zip":"98103", "city":"Seattle", "venueName":"Yellow Dot Cafe", "state":"WA", "country":"US", "address_1":"701 N 34th St", "address_2":"", "venueType":"Standard", "venueStatus":"Active"},
 {"cc_venueID":268, "venueID":18443152, "lat":47.615375518799, "lon":-122.32605743408, "zip":"98122", "city":"Seattle", "venueName":"Bauhaus Books & Coffee - Capitol Hill 2", "state":"WA", "country":"US", "address_1":"414 E Pine St", "address_2":"", "venueType":"Standard", "venueStatus":"Inactive"},
 {"cc_venueID":269, "venueID":18511202, "lat":47.617221832275, "lon":-122.35362243652, "zip":"98121", "city":"Seattle", "venueName":"Drip City", "state":"WA", "country":"US", "address_1":"2929 1st Ave", "address_2":"", "venueType":"Standard", "venueStatus":"Active"},
 {"cc_venueID":270, "venueID":18642112, "lat":47.625347137451, "lon":-122.35656738281, "zip":"98109", "city":"Seattle", "venueName":"Caffe Ladro - Lower Queen Anne", "state":"WA", "country":"US", "address_1":"600 Queen Anne Ave N", "address_2":"", "venueType":"Standard", "venueStatus":"Active"},
 {"cc_venueID":271, "venueID":18677002, "lat":47.698287963867, "lon":-122.31517028809, "zip":"98115", "city":"Seattle", "venueName":"Lux Coffee Company", "state":"WA", "country":"US", "address_1":"1059 NE 96th St", "address_2":"", "venueType":"Standard", "venueStatus":"Inactive"},
 {"cc_venueID":272, "venueID":24368768, "lat":47.703033447266, "lon":-122.17617034912, "zip":"98033", "city":"Kirkland", "venueName":"Urban Coffee Lounge - Slater 116 ", "state":"WA", "country":"US", "address_1":"12348 NE 115th Pl", "address_2":"", "venueType":"Standard", "venueStatus":"Active"},
 {"cc_venueID":273, "venueID":19812252, "lat":47.616794586182, "lon":-122.34638977051, "zip":"98121", "city":"Seattle", "venueName":"La Parisienne French Bakery", "state":"WA", "country":"US", "address_1":"2507 4th Ave", "address_2":"", "venueType":"Standard", "venueStatus":"Active"},
 {"cc_venueID":274, "venueID":20044602, "lat":47.676399230957, "lon":-122.31745910645, "zip":"98155", "city":"Seattle", "venueName":"Broadcast Coffee - Ravenna", "state":"WA", "country":"US", "address_1":"6515 Roosevelt Way NE", "address_2":"", "venueType":"Standard", "venueStatus":"Active"},
 {"cc_venueID":275, "venueID":20080812, "lat":47.045501708984, "lon":-122.89553070068, "zip":"98501", "city":"Olympia", "venueName":"Olympia Coffee Roasting Company (org flagship)", "state":"WA", "country":"US", "address_1":"108 Cherry St NE", "address_2":"", "venueType":"Standard", "venueStatus":"Inactive"},
 {"cc_venueID":276, "venueID":20479152, "lat":47.59920501709, "lon":-122.32581329346, "zip":"98104", "city":"Seattle", "venueName":"Trichome", "state":"WA", "country":"US", "address_1":"618 S Jackson St", "address_2":"", "venueType":"Other", "venueStatus":"Active"},
 {"cc_venueID":277, "venueID":21286912, "lat":47.612377166748, "lon":-122.33759307861, "zip":"98101", "city":"Seattle", "venueName":"Seattle Coffee Gear - Downtown", "state":"WA", "country":"US", "address_1":"400 Pine St", "address_2":"Ste #112", "venueType":"Standard", "venueStatus":"Inactive"},
 {"cc_venueID":278, "venueID":21331442, "lat":47.603569, "lon":-122.329453, "zip":"98104", "city":"Seattle", "venueName":"Storyville Coffee - 1st and Madison", "state":"WA", "country":"US", "address_1":"1001 1st Ave", "address_2":"", "venueType":"Standard", "venueStatus":"Active"},
 {"cc_venueID":279, "venueID":21400092, "lat":47.638145446777, "lon":-122.35653686523, "zip":"98109", "city":"Seattle", "venueName":"Storyville Coffee - Queen Anne", "state":"WA", "country":"US", "address_1":"2128 Queen Anne Avenue N.", "address_2":"", "venueType":"Standard", "venueStatus":"Active"},
 {"cc_venueID":280, "venueID":21547962, "lat":47.680965423584, "lon":-122.4046948, "zip":"98117", "city":"Seattle", "venueName":"Jibe Espresso Bar", "state":"WA", "country":"US", "address_1":"7001 Seaview Ave NW ", "address_2":"Suite 170", "venueType":"Standard", "venueStatus":"Active"},
 {"cc_venueID":281, "venueID":21574592, "lat":47.62088, "lon":-122.319771, "zip":"98102", "city":"Seattle", "venueName":"Cafe Solstice - Capitol Hill", "state":"WA", "country":"US", "address_1":"925 E Thomas St", "address_2":"", "venueType":"Standard", "venueStatus":"Active"},
 {"cc_venueID":282, "venueID":21803192, "lat":47.603569, "lon":-122.329453, "zip":"", "city":"Seattle", "venueName":"Rhein Haus", "state":"WA", "country":"US", "address_1":"912 12the Ave", "address_2":"", "venueType":"Other", "venueStatus":"Active"},
 {"cc_venueID":283, "venueID":21882602, "lat":47.671844482422, "lon":-122.37657165527, "zip":"98107", "city":"Seattle", "venueName":"Biscuit and Bean", "state":"WA", "country":"US", "address_1":"5905 15th Ave NW", "address_2":"", "venueType":"Standard", "venueStatus":"Active"},
 {"cc_venueID":284, "venueID":21965712, "lat":47.607994, "lon":-122.31633, "zip":"98122", "city":"Seattle", "venueName":"Cherry Street Coffee House - Seattle U", "state":"WA", "country":"US", "address_1":"1223 E Cherry St", "address_2":"", "venueType":"Standard", "venueStatus":"Active"},
 {"cc_venueID":285, "venueID":22598712, "lat":47.615123748779, "lon":-122.34016418457, "zip":"98121", "city":"Seattle", "venueName":"Assembly Hall", "state":"WA", "country":"US", "address_1":"2121 6th Avenue", "address_2":"", "venueType":"Other", "venueStatus":"Active"},
 {"cc_venueID":286, "venueID":22633372, "lat":47.613789, "lon":-122.345642, "zip":"98121", "city":"Seattle", "venueName":"Bedlam Coffee", "state":"WA", "country":"US", "address_1":"2231 2nd Ave", "address_2":"", "venueType":"Standard", "venueStatus":"Active"},
 {"cc_venueID":287, "venueID":23402432, "lat":47.623462677002, "lon":-122.33804321289, "zip":"98109", "city":"Seattle", "venueName":"Uptown Espresso - SLU", "state":"WA", "country":"US", "address_1":"500 Westlake Ave N", "address_2":"", "venueType":"Standard", "venueStatus":"Active"},
 {"cc_venueID":288, "venueID":23476629, "lat":47.615249633789, "lon":-122.32754516602, "zip":"98122", "city":"Seattle", "venueName":"Cherry Street Coffee House - Cap Hill", "state":"WA", "country":"US", "address_1":"320 E Pine St", "address_2":"", "venueType":"Standard", "venueStatus":"Active"},
 {"cc_venueID":289, "venueID":23509034, "lat":47.623851776123, "lon":-122.31262207031, "zip":"98122", "city":"Seattle", "venueName":"Nuflours", "state":"WA", "country":"US", "address_1":"518 15th Ave E", "address_2":"", "venueType":"Standard", "venueStatus":"Active"},
 {"cc_venueID":290, "venueID":23517149, "lat":47.666839599609, "lon":-122.38414001465, "zip":"98107", "city":"Seattle", "venueName":"Mmmhmm Coffee (Sandborn Lobby)", "state":"WA", "country":"US", "address_1":"5325 Ballard Ave NW", "address_2":"", "venueType":"Standard", "venueStatus":"Inactive"},
 {"cc_venueID":291, "venueID":23528130, "lat":47.622413635254, "lon":-122.31262969971, "zip":"98122", "city":"Seattle", "venueName":"Ada's Technical Books", "state":"WA", "country":"US", "address_1":"425 15th Ave E", "address_2":"", "venueType":"Standard", "venueStatus":"Active"},
 {"cc_venueID":292, "venueID":23543910, "lat":47.667789, "lon":-122.385033, "zip":"98107", "city":"Seattle", "venueName":"Caffe Umbria - Ballard", "state":"WA", "country":"US", "address_1":"5407 Ballard Ave Nw", "address_2":"", "venueType":"Standard", "venueStatus":"Active"},
 {"cc_venueID":293, "venueID":23546764, "lat":47.689998626709, "lon":-122.19000244141, "zip":"98033", "city":"Kirkland", "venueName":"Kameha cup", "state":"WA", "country":"US", "address_1":"11451 98th Ave NE", "address_2":"", "venueType":"Standard", "venueStatus":"Inactive"},
 {"cc_venueID":294, "venueID":23572431, "lat":47.685668945312, "lon":-122.3373260498, "zip":"98103", "city":"Seattle", "venueName":"Bauhaus Books & Coffee - Greenlake", "state":"WA", "country":"US", "address_1":"7900 E Green Lake Dr N ", "address_2":"Ste 106", "venueType":"Standard", "venueStatus":"Inactive"},
 {"cc_venueID":295, "venueID":23573437, "lat":47.670738220215, "lon":-122.12217712402, "zip":"98052", "city":"Redmond", "venueName":"Kitanda Espresso and Acai", "state":"WA", "country":"US", "address_1":"16349 NE 74th St", "address_2":"", "venueType":"Standard", "venueStatus":"Active"},
 {"cc_venueID":296, "venueID":23582314, "lat":47.600509643555, "lon":-122.33152008057, "zip":"98104", "city":"Seattle", "venueName":"Elm Coffee - Pioneer Square", "state":"WA", "country":"US", "address_1":"240 2nd Ave S", "address_2":"(Really on S. Main St between 2nd Ave and 2nd Ave S)", "venueType":"Standard", "venueStatus":"Active"},
 {"cc_venueID":297, "venueID":23639273, "lat":47.671440124512, "lon":-122.31735992432, "zip":"98105", "city":"Seattle", "venueName":"Cafe Racer", "state":"WA", "country":"US", "address_1":"5828 Roosevelt Way NE", "address_2":"", "venueType":"Standard", "venueStatus":"Active"},
 {"cc_venueID":298, "venueID":23642139, "lat":47.606868743896, "lon":-122.32441711426, "zip":"98104", "city":"Seattle", "venueName":"Gallery Cafe", "state":"WA", "country":"US", "address_1":"704 Terry Ave", "address_2":"", "venueType":"Standard", "venueStatus":"Active"},
 {"cc_venueID":299, "venueID":23655862, "lat":47.518882751465, "lon":-122.2967376709, "zip":"98108", "city":"Tukwila", "venueName":"Wings Cafe", "state":"WA", "country":"US", "address_1":"9404 E Marginal Way S", "address_2":"", "venueType":"Standard", "venueStatus":"Active"},
 {"cc_venueID":300, "venueID":23682693, "lat":47.689250946045, "lon":-122.35494995117, "zip":"98103", "city":"Seattle", "venueName":"Coyle's Bakeshop", "state":"WA", "country":"US", "address_1":"8300 Greenwood Ave N", "address_2":"", "venueType":"Standard", "venueStatus":"Active"},
 {"cc_venueID":301, "venueID":23738416, "lat":47.62212, "lon":-122.354042, "zip":"98109", "city":"Seattle", "venueName":"Seattle Center Armory Main Floor  ", "state":"WA", "country":"US", "address_1":"305 Harrison Street", "address_2":"", "venueType":"Other", "venueStatus":"Active"},
 {"cc_venueID":302, "venueID":23779823, "lat":35.6566777, "lon":139.695823, "zip":"", "city":"Tokyo", "venueName":"About Life Coffee Brewers", "state":"", "country":"JP", "address_1":"1-19-8, D\u014dgenzaka, Shibuya", "address_2":"", "venueType":"Standard", "venueStatus":"Active"},
 {"cc_venueID":303, "venueID":23787321, "lat":47.636173248291, "lon":-122.37036132812, "zip":"98119", "city":"Seattle", "venueName":"Seattle Grind - Queen Anne", "state":"WA", "country":"US", "address_1":"1907 10th Ave W", "address_2":"", "venueType":"Standard", "venueStatus":"Inactive"},
 {"cc_venueID":304, "venueID":23846189, "lat":47.614105224609, "lon":-122.32837677002, "zip":"98101", "city":"Seattle", "venueName":"Starbucks - Reserve Roastery", "state":"WA", "country":"US", "address_1":"1124 Pike St", "address_2":"", "venueType":"Standard", "venueStatus":"Active"},
 {"cc_venueID":305, "venueID":23801496, "lat":47.262356, "lon":-122.450577, "zip":"", "city":"Tacoma", "venueName":"Cosmonaut Coffee", "state":"WA", "country":"US", "address_1":"817 Division Ave", "address_2":"", "venueType":"Standard", "venueStatus":"Active"},
 {"cc_venueID":306, "venueID":23846902, "lat":47.589668273926, "lon":-122.29243469238, "zip":"98144", "city":"Seattle", "venueName":"QED Coffee - Mount Baker", "state":"WA", "country":"US", "address_1":"1418 31st Ave S", "address_2":"", "venueType":"Standard", "venueStatus":"Active"},
 {"cc_venueID":307, "venueID":23875351, "lat":47.5845849, "lon":-122.3369144, "zip":"98134", "city":"Seattle", "venueName":"Macrina Bakery and Cafe", "state":"WA", "country":"US", "address_1":"1943 First Avenue South", "address_2":"", "venueType":"Standard", "venueStatus":"Active"},
 {"cc_venueID":308, "venueID":23921197, "lat":47.610000610352, "lon":-122.33000183105, "zip":"98101", "city":"Seattle", "venueName":"Ventoux Roasters", "state":"WA", "country":"US", "address_1":"3404 NE 55th Street", "address_2":"", "venueType":"Standard", "venueStatus":"Inactive"},
 {"cc_venueID":309, "venueID":23944560, "lat":47.6487159729, "lon":-122.34228515625, "zip":"98103", "city":"Seattle", "venueName":"MiiR Flagship", "state":"WA", "country":"US", "address_1":"3400 Stone Way N ", "address_2":"", "venueType":"Standard", "venueStatus":"Active"},
 {"cc_venueID":310, "venueID":23984102, "lat":47.613796, "lon":-122.324776, "zip":"", "city":"Seattle", "venueName":"Kaladi Brothers", "state":"WA", "country":"US", "address_1":"517 E Pike St", "address_2":"", "venueType":"Standard", "venueStatus":"Active"},
 {"cc_venueID":311, "venueID":24016878, "lat":47.495136260986, "lon":-121.78620147705, "zip":"98045", "city":"North Bend", "venueName":"Twede's Cafe", "state":"WA", "country":"US", "address_1":"137 W North Bend Way", "address_2":"", "venueType":"Standard", "venueStatus":"Active"},
 {"cc_venueID":312, "venueID":24019842, "lat":47.68017578125, "lon":-122.32545471191, "zip":"98115", "city":"Seattle", "venueName":"Shelter Lounge", "state":"WA", "country":"US", "address_1":"7110 E Greenlake Dr N", "address_2":"", "venueType":"Other", "venueStatus":"Active"},
 {"cc_venueID":313, "venueID":24061118, "lat":47.751777648926, "lon":-122.3455657959, "zip":"98133", "city":"Shoreline", "venueName":"One Cup Cafe", "state":"WA", "country":"US", "address_1":"16743 Aurora Ave N", "address_2":"", "venueType":"Standard", "venueStatus":"Active"},
 {"cc_venueID":314, "venueID":24076440, "lat":47.578678131104, "lon":-122.41148376465, "zip":"98116", "city":"Seattle", "venueName":"Top Pot Doughnuts - West Seattle", "state":"WA", "country":"US", "address_1":"2758 Alki Ave SW", "address_2":"", "venueType":"Standard", "venueStatus":"Active"},
 {"cc_venueID":315, "venueID":24103735, "lat":47.602649688721, "lon":-122.33234405518, "zip":"98104", "city":"Seattle", "venueName":"Slate Coffee - Pioneer Square", "state":"WA", "country":"US", "address_1":"602 2nd Ave", "address_2":"", "venueType":"Standard", "venueStatus":"Active"},
 {"cc_venueID":316, "venueID":24110189, "lat":47.543354034424, "lon":-122.05812835693, "zip":"98027", "city":"Issaquah", "venueName":"Top Pot Doughnuts - Issaquah", "state":"WA", "country":"US", "address_1":"1235 NW Maple St", "address_2":"", "venueType":"Standard", "venueStatus":"Active"},
 {"cc_venueID":317, "venueID":24120086, "lat":47.661079406738, "lon":-122.31377410889, "zip":"98105", "city":"Seattle", "venueName":"Slate Coffee - University", "state":"WA", "country":"US", "address_1":"1309 NE 45th St", "address_2":"", "venueType":"Standard", "venueStatus":"Active"},
 {"cc_venueID":318, "venueID":24203273, "lat":47.16, "lon":-122.510002, "zip":"98499", "city":"Tacoma", "venueName":"Coffee Kitchen", "state":"WA", "country":"US", "address_1":"9115 S Tacoma Way, Ste 107", "address_2":"", "venueType":"Standard", "venueStatus":"Active"},
 {"cc_venueID":319, "venueID":24390984, "lat":47.612701416016, "lon":-122.31864929199, "zip":"98122", "city":"Seattle", "venueName":"Metier Racing and Coffee", "state":"WA", "country":"US", "address_1":"1017 E Union St", "address_2":"", "venueType":"Standard", "venueStatus":"Active"},
 {"cc_venueID":320, "venueID":24247414, "lat":47.614189147949, "lon":-122.33472442627, "zip":"98101", "city":"Seattle", "venueName":"Mr. West", "state":"WA", "country":"US", "address_1":"720 Olive Way", "address_2":"", "venueType":"Standard", "venueStatus":"Active"},
 {"cc_venueID":321, "venueID":24249728, "lat":47.681713104248, "lon":-122.12550354004, "zip":"98052", "city":"Redmond", "venueName":"Belle Pastry", "state":"WA", "country":"US", "address_1":"8918 161st Avenue NE", "address_2":"", "venueType":"Standard", "venueStatus":"Inactive"},
 {"cc_venueID":322, "venueID":24250664, "lat":47.662689208984, "lon":-122.37840270996, "zip":"98107", "city":"Seattle", "venueName":"La Marzocco USA - Ballard", "state":"WA", "country":"US", "address_1":"1553 NW Ballard Way", "address_2":"", "venueType":"Standard", "venueStatus":"Active"},
 {"cc_venueID":323, "venueID":24280838, "lat":47.619155883789, "lon":-122.34800720215, "zip":"98109", "city":"Seattle", "venueName":"Honor Coffee & Tea - Seattle Center", "state":"WA", "country":"US", "address_1":"140 4th Ave N", "address_2":"", "venueType":"Standard", "venueStatus":"Inactive"},
 {"cc_venueID":324, "venueID":24302616, "lat":47.661224, "lon":-122.342918, "zip":"98103", "city":"Seattle", "venueName":"Seattle Meowtropolitan cafe", "state":"WA", "country":"US", "address_1":"1225 N 45th St", "address_2":"", "venueType":"Standard", "venueStatus":"Active"},
 {"cc_venueID":325, "venueID":24306882, "lat":47.614105, "lon":-122.327309, "zip":"98122", "city":"Seattle", "venueName":"Stateside", "state":"WA", "country":"US", "address_1":"300 East Pike Street", "address_2":"", "venueType":"Other", "venueStatus":"Active"},
 {"cc_venueID":326, "venueID":24343193, "lat":47.666881, "lon":-122.382774, "zip":"98107", "city":"Seattle", "venueName":"Caffe Fiore - Ballard", "state":"WA", "country":"US", "address_1":"5405 Leary Way NW", "address_2":"", "venueType":"Standard", "venueStatus":"Active"},
 {"cc_venueID":327, "venueID":24369486, "lat":47.622543334961, "lon":-122.33391571045, "zip":"98108", "city":"Seattle", "venueName":"Caffe Ladro - SLU", "state":"WA", "country":"US", "address_1":"400 Fairview Ave N", "address_2":"", "venueType":"Standard", "venueStatus":"Active"},
 {"cc_venueID":328, "venueID":24428162, "lat":40.76082611084, "lon":-73.988983154297, "zip":"10036", "city":"New York", "venueName":"Frisson Espresso", "state":"NY", "country":"US", "address_1":"326 W 47th St", "address_2":"", "venueType":"Standard", "venueStatus":"Active"},
 {"cc_venueID":329, "venueID":25091425, "lat":47.69086, "lon":-122.36308, "zip":"98117", "city":"Seattle", "venueName":"Preserve and Gather", "state":"WA", "country":"US", "address_1":"358 NW 85th Street", "address_2":"", "venueType":"Standard", "venueStatus":"Active"},
 {"cc_venueID":330, "venueID":24447055, "lat":47.675773620605, "lon":-122.38724517822, "zip":"98107", "city":"Seattle", "venueName":"Royal Drummer Cafe", "state":"WA", "country":"US", "address_1":"6420 24th Ave NW", "address_2":"", "venueType":"Standard", "venueStatus":"Inactive"},
 {"cc_venueID":331, "venueID":24452121, "lat":47.5998734, "lon":-122.3279719, "zip":"98104", "city":"Seattle", "venueName":"Panama Hotel Tea and Coffee House ", "state":"WA", "country":"US", "address_1":"607 S Main St", "address_2":"", "venueType":"Standard", "venueStatus":"Active"},
 {"cc_venueID":332, "venueID":24453724, "lat":47.668682098389, "lon":-122.33296203613, "zip":"98103", "city":"Seattle", "venueName":"Zoka Coffee - Wallingford", "state":"WA", "country":"US", "address_1":"2200 N 56th St", "address_2":"", "venueType":"Standard", "venueStatus":"Active"},
 {"cc_venueID":333, "venueID":24492107, "lat":47.623054504395, "lon":-122.35540771484, "zip":"98109", "city":"Seattle", "venueName":"La Marzocco Cafe - Queen Anne", "state":"WA", "country":"US", "address_1":"472 1st Ave N", "address_2":"", "venueType":"Standard", "venueStatus":"Active"},
 {"cc_venueID":334, "venueID":24536909, "lat":47.612953, "lon":-122.319145, "zip":"98122", "city":"Seattle", "venueName":"General Porpoise - Capitol Hill", "state":"WA", "country":"US", "address_1":"1020 E Union St.", "address_2":"", "venueType":"Standard", "venueStatus":"Active"},
 {"cc_venueID":335, "venueID":24547585, "lat":47.60215, "lon":-122.284935, "zip":"98122", "city":"Seattle", "venueName":"Meet the Moon", "state":"WA", "country":"US", "address_1":"120 Lakeside Avenue", "address_2":"", "venueType":"Standard", "venueStatus":"Active"},
 {"cc_venueID":336, "venueID":24564175, "lat":47.55571, "lon":-122.270584, "zip":"98118", "city":"Seattle", "venueName":"Raconteur", "state":"WA", "country":"US", "address_1":"5041 Wilson Ave S", "address_2":"", "venueType":"Standard", "venueStatus":"Active"},
 {"cc_venueID":337, "venueID":24567260, "lat":47.661606, "lon":-122.314606, "zip":"98105", "city":"Seattle", "venueName":"Post Alley Cafe", "state":"WA", "country":"US", "address_1":"4507 Brooklyn Ave NE", "address_2":"", "venueType":"Standard", "venueStatus":"Inactive"},
 {"cc_venueID":338, "venueID":24568754, "lat":47.636223, "lon":-122.370636, "zip":"98119", "city":"Seattle", "venueName":"Coffeemind", "state":"WA", "country":"US", "address_1":"1907 10th Ave West", "address_2":"", "venueType":"Standard", "venueStatus":"Active"},
 {"cc_venueID":339, "venueID":24574671, "lat":47.563313, "lon":-122.37827, "zip":"98126", "city":"Seattle", "venueName":"Realfine Coffee - West Seattle", "state":"WA", "country":"US", "address_1":"4480 Fauntleroy Way SW", "address_2":"", "venueType":"Standard", "venueStatus":"Active"},
 {"cc_venueID":340, "venueID":24577480, "lat":47.613659, "lon":-122.317711, "zip":"98122", "city":"Seattle", "venueName":"Empire Espresso - Capitol Hill", "state":"WA", "country":"US", "address_1":"1424 11th Ave", "address_2":"", "venueType":"Standard", "venueStatus":"Inactive"},
 {"cc_venueID":341, "venueID":24590878, "lat":47.663246, "lon":-122.315598, "zip":"98105", "city":"Seattle", "venueName":"Jake's Coffee", "state":"WA", "country":"US", "address_1":"1116 NE 47th St", "address_2":"", "venueType":"Standard", "venueStatus":"Active"},
 {"cc_venueID":342, "venueID":24595317, "lat":47.542591, "lon":-122.272644, "zip":"98118", "city":"Seattle", "venueName":"Caf\u00e9 Avole", "state":"WA", "country":"US", "address_1":"6630 Rainier Avenue S", "address_2":"", "venueType":"Standard", "venueStatus":"Active"},
 {"cc_venueID":343, "venueID":24625715, "lat":47.600681, "lon":-122.331313, "zip":"98104", "city":"Seattle", "venueName":"Convoy Coffee", "state":"WA", "country":"US", "address_1":"220 2nd Ave S", "address_2":"", "venueType":"Standard", "venueStatus":"Active"},
 {"cc_venueID":344, "venueID":24638055, "lat":47.623287, "lon":-122.354607, "zip":"98109", "city":"Seattle", "venueName":"Craftworks Coffee", "state":"WA", "country":"US", "address_1":"110 Republican Street", "address_2":"", "venueType":"Standard", "venueStatus":"Inactive"},
 {"cc_venueID":345, "venueID":24667837, "lat":47.615517, "lon":-122.313118, "zip":"98122", "city":"Seattle", "venueName":"Honor Coffee - Capitol Hill Pine", "state":"WA", "country":"US", "address_1":"1424 E Pine St", "address_2":"", "venueType":"Standard", "venueStatus":"Inactive"},
 {"cc_venueID":346, "venueID":24674162, "lat":47.683086, "lon":-122.355568, "zip":"98103", "city":"Seattle", "venueName":"Cookie Counter", "state":"WA", "country":"US", "address_1":"7415 Greenwood Ave N", "address_2":"", "venueType":"Standard", "venueStatus":"Active"},
 {"cc_venueID":347, "venueID":24678792, "lat":47.559757, "lon":-122.383194, "zip":"98116", "city":"Seattle", "venueName":"Sound and Fog", "state":"WA", "country":"US", "address_1":"4745 40th SW", "address_2":"", "venueType":"Standard", "venueStatus":"Active"},
 {"cc_venueID":348, "venueID":24679448, "lat":47.829956, "lon":-122.272568, "zip":"98037", "city":"Lynnwood", "venueName":"Seattle Coffee Gear - Alderwood Mall", "state":"WA", "country":"US", "address_1":"3000 184th St SW", "address_2":"", "venueType":"Standard", "venueStatus":"Inactive"},
 {"cc_venueID":349, "venueID":24759876, "lat":47.675854, "lon":-122.124916, "zip":"98052", "city":"Redmond", "venueName":"5 Stones Coffee Company", "state":"WA", "country":"US", "address_1":"8102 161st Ave NE", "address_2":"", "venueType":"Standard", "venueStatus":"Active"},
 {"cc_venueID":350, "venueID":24802394, "lat":47.66766, "lon":-122.374504, "zip":"98107", "city":"Seattle", "venueName":"Woodland Coffee", "state":"WA", "country":"US", "address_1":"1417 NW 54th St.", "address_2":"", "venueType":"Standard", "venueStatus":"Active"},
 {"cc_venueID":351, "venueID":24803813, "lat":47.6126922, "lon":-122.3032794, "zip":"98122", "city":"Seattle", "venueName":"Union Coffee ", "state":"WA", "country":"US", "address_1":"2407 E Union St.", "address_2":"", "venueType":"Standard", "venueStatus":"Active"},